{
  "SHJ": {
    "name": "Sharjah International Airport",
    "city": "Ash Shariqah",
    "country": "AE",
    "lat": 25.32859993,
    "lon": 55.51720047
  },
  "AZI": {
    "name": "Al Bateen Executive Airport",
    "city": "Abu Zaby",
    "country": "AE",
    "lat": 24.42830086,
    "lon": 54.45809937
  },
  "FJR": {
    "name": "Fujairah International Airport",
    "city": "Al Fujayrah",
    "country": "AE",
    "lat": 25.11219978,
    "lon": 56.32400131
  },
  "XSB": {
    "name": "Sir Bani Yas Airport",
    "city": "Abu Zaby",
    "country": "AE",
    "lat": 24.283611,
    "lon": 52.580278
  },
  "RKT": {
    "name": "Ras Al Khaimah International Airport",
    "city": "Ra's al Khaymah",
    "country": "AE",
    "lat": 25.6135006,
    "lon": 55.93880081
  },
  "DWC": {
    "name": "Al Maktoum International Airport",
    "city": "Dubayy",
    "country": "AE",
    "lat": 24.896356,
    "lon": 55.161389
  },
  "DHF": {
    "name": "Al Dhafra Air Base",
    "city": "Abu Zaby",
    "country": "AE",
    "lat": 24.24819946,
    "lon": 54.54769897
  },
  "ZDY": {
    "name": "Dalma Airport",
    "city": "Abu Zaby",
    "country": "AE",
    "lat": 24.51,
    "lon": 52.3352
  },
  "DCG": {
    "name": "Dubai Creek Seaplane Base",
    "city": "Dubayy",
    "country": "AE",
    "lat": 25.24222222,
    "lon": 55.33138889
  },
  "AYM": {
    "name": "Yas Island Seaplane Base",
    "city": "Abu Zaby",
    "country": "AE",
    "lat": 24.467,
    "lon": 54.6103
  },
  "DJH": {
    "name": "Jebel Ali Seaplane Base",
    "city": "Dubayy",
    "country": "AE",
    "lat": 24.988967,
    "lon": 55.023796
  },
  "RHR": {
    "name": "Al Hamra Seaplane Base",
    "city": "Ra's al Khaymah",
    "country": "AE",
    "lat": 25.691,
    "lon": 55.778
  },
  "DXB": {
    "name": "Dubai International Airport",
    "city": "Dubayy",
    "country": "AE",
    "lat": 25.25279999,
    "lon": 55.36439896
  },
  "AAN": {
    "name": "Al Ain International Airport",
    "city": "Abu Zaby",
    "country": "AE",
    "lat": 24.26169968,
    "lon": 55.60919952
  },
  "NHD": {
    "name": "Al Minhad Air Base",
    "city": "Dubayy",
    "country": "AE",
    "lat": 25.02680016,
    "lon": 55.36619949
  },
  "AUH": {
    "name": "Abu Dhabi International Airport",
    "city": "Abu Zaby",
    "country": "AE",
    "lat": 24.43300056,
    "lon": 54.65110016
  },
  "FAH": {
    "name": "Farah Airport",
    "city": "Farah",
    "country": "AF",
    "lat": 32.36700058,
    "lon": 62.18299866
  },
  "MMZ": {
    "name": "Maymana Airport",
    "city": "Faryab",
    "country": "AF",
    "lat": 35.93080139,
    "lon": 64.7609024
  },
  "OLR": {
    "name": "Forward Operating Base Salerno",
    "city": "Khost",
    "country": "AF",
    "lat": 33.3638,
    "lon": 69.9561
  },
  "KWH": {
    "name": "Khwahan Airport",
    "city": "Badakhshan",
    "country": "AF",
    "lat": 37.88299942,
    "lon": 70.21700287
  },
  "SBF": {
    "name": "Sardeh Band Airport",
    "city": "Ghazni",
    "country": "AF",
    "lat": 33.3207016,
    "lon": 68.6364975
  },
  "KBL": {
    "name": "Hamid Karzai International Airport",
    "city": "Kabul",
    "country": "AF",
    "lat": 34.565899,
    "lon": 69.212303
  },
  "LQN": {
    "name": "Qala i Naw Airport",
    "city": "Badghis",
    "country": "AF",
    "lat": 34.98500061,
    "lon": 63.11780167
  },
  "FBD": {
    "name": "Fayzabad Airport",
    "city": "Badakhshan",
    "country": "AF",
    "lat": 37.121101,
    "lon": 70.518097
  },
  "KHT": {
    "name": "Khost Airfield",
    "city": "Khost",
    "country": "AF",
    "lat": 33.333401,
    "lon": 69.952003
  },
  "SGA": {
    "name": "Sheghnan Airport",
    "city": "Badakhshan",
    "country": "AF",
    "lat": 37.56700134,
    "lon": 71.5
  },
  "HEA": {
    "name": "Herat International Airport",
    "city": "Herat",
    "country": "AF",
    "lat": 34.20999908,
    "lon": 62.22829819
  },
  "GZI": {
    "name": "Ghazni Airport",
    "city": "Ghazni",
    "country": "AF",
    "lat": 33.53120041,
    "lon": 68.41290283
  },
  "BIN": {
    "name": "Bamyan Airport",
    "city": "Bamyan",
    "country": "AF",
    "lat": 34.81700134,
    "lon": 67.81700134
  },
  "KDH": {
    "name": "Kandahar International Airport",
    "city": "Kandahar",
    "country": "AF",
    "lat": 31.50580025,
    "lon": 65.84780121
  },
  "DWR": {
    "name": "Dwyer Airport",
    "city": "Helmand",
    "country": "AF",
    "lat": 31,
    "lon": 64
  },
  "GRG": {
    "name": "Gardez Airport",
    "city": "Kabul",
    "country": "AF",
    "lat": 33.63150024,
    "lon": 69.23940277
  },
  "UND": {
    "name": "Kunduz Airport",
    "city": "Kunduz",
    "country": "AF",
    "lat": 36.6651001,
    "lon": 68.91079712
  },
  "BST": {
    "name": "Bost Airport",
    "city": "Helmand",
    "country": "AF",
    "lat": 31.55970001,
    "lon": 64.36499786
  },
  "URZ": {
    "name": "Uruzgan Airport",
    "city": "Kandahar",
    "country": "AF",
    "lat": 32.90299988,
    "lon": 66.63089752
  },
  "TII": {
    "name": "Tarinkot Airport",
    "city": "Kandahar",
    "country": "AF",
    "lat": 32.60419846,
    "lon": 65.86579895
  },
  "URN": {
    "name": "Urgun Airport",
    "city": "Paktika",
    "country": "AF",
    "lat": 32.93180084,
    "lon": 69.15630341
  },
  "ZAJ": {
    "name": "Zaranj Airport",
    "city": "Herat",
    "country": "AF",
    "lat": 30.972222,
    "lon": 61.865833
  },
  "OAZ": {
    "name": "Camp Bastion Air Base",
    "city": "Helmand",
    "country": "AF",
    "lat": 31.86380005,
    "lon": 64.22460175
  },
  "MZR": {
    "name": "Mazar-e Sharif International Airport",
    "city": "Balkh",
    "country": "AF",
    "lat": 36.70690155,
    "lon": 67.20970154
  },
  "KUR": {
    "name": "Razer Airport",
    "city": "Badakhshan",
    "country": "AF",
    "lat": 37.75199,
    "lon": -89.015407
  },
  "TQN": {
    "name": "Taloqan Airport",
    "city": "Takhar",
    "country": "AF",
    "lat": 36.77069855,
    "lon": 69.53199768
  },
  "CCN": {
    "name": "Chaghcharan Airport",
    "city": "Ghor",
    "country": "AF",
    "lat": 34.526465,
    "lon": 65.27102
  },
  "DAZ": {
    "name": "Darwaz Airport",
    "city": "Badakhshan",
    "country": "AF",
    "lat": 38.46110153,
    "lon": 70.88249969
  },
  "JAA": {
    "name": "Jalalabad Airport",
    "city": "Nangarhar",
    "country": "AF",
    "lat": 34.39979935,
    "lon": 70.49859619
  },
  "OAA": {
    "name": "Forward Operating Base Shank",
    "city": "Kabul",
    "country": "AF",
    "lat": 33.9225,
    "lon": 69.07722222
  },
  "OAH": {
    "name": "Shindand Air Base",
    "city": "Herat",
    "country": "AF",
    "lat": 33.3913002,
    "lon": 62.26100159
  },
  "OAI": {
    "name": "Bagram Airfield",
    "city": "Parwan",
    "country": "AF",
    "lat": 34.94609833,
    "lon": 69.26499939
  },
  "OAS": {
    "name": "Sharana Airstrip / Forward Operating Base Sharana",
    "city": "Paktika",
    "country": "AF",
    "lat": 33.12575,
    "lon": 68.838517
  },
  "BBQ": {
    "name": "Barbuda Codrington Airport",
    "city": "Barbuda",
    "country": "AG",
    "lat": 17.635799,
    "lon": -61.828602
  },
  "ANU": {
    "name": "V. C. Bird International Airport",
    "city": "Saint George",
    "country": "AG",
    "lat": 17.1367,
    "lon": -61.792702
  },
  "AXA": {
    "name": "Clayton J. Lloyd International Airport",
    "city": "Anguilla",
    "country": "AI",
    "lat": 18.2048,
    "lon": -63.055099
  },
  "LWN": {
    "name": "Shirak Airport",
    "city": "Sirak",
    "country": "AM",
    "lat": 40.75040054,
    "lon": 43.85929871
  },
  "EVN": {
    "name": "Zvartnots International Airport",
    "city": "Erevan",
    "country": "AM",
    "lat": 40.14730072,
    "lon": 44.39590073
  },
  "LUO": {
    "name": "Luena Airport",
    "city": "Moxico",
    "country": "AO",
    "lat": -11.76809978,
    "lon": 19.89769936
  },
  "VPE": {
    "name": "Ondjiva Pereira Airport",
    "city": "Cunene",
    "country": "AO",
    "lat": -17.0435009,
    "lon": 15.68379974
  },
  "UGO": {
    "name": "Uige Airport",
    "city": "Uige",
    "country": "AO",
    "lat": -7.603069782,
    "lon": 15.02779961
  },
  "KNP": {
    "name": "Kapanda Airport",
    "city": "Malange",
    "country": "AO",
    "lat": -9.769370079,
    "lon": 15.4553194
  },
  "SVP": {
    "name": "Kuito Airport",
    "city": "Bie",
    "country": "AO",
    "lat": -12.40460014,
    "lon": 16.94739914
  },
  "ARZ": {
    "name": "N'zeto Airport",
    "city": "Zaire",
    "country": "AO",
    "lat": -7.259439945,
    "lon": 12.86310005
  },
  "CTI": {
    "name": "Cuito Cuanavale Airport",
    "city": "Kuando Kubango",
    "country": "AO",
    "lat": -15.16030025,
    "lon": 19.15609932
  },
  "MSZ": {
    "name": "Namibe Airport (Yuri Gagarin Airport)",
    "city": "Namibe",
    "country": "AO",
    "lat": -15.26119995,
    "lon": 12.14680004
  },
  "SZA": {
    "name": "Soyo Airport",
    "city": "Zaire",
    "country": "AO",
    "lat": -6.141089916,
    "lon": 12.37180042
  },
  "SDD": {
    "name": "Lubango Mukanka Airport",
    "city": "Huila",
    "country": "AO",
    "lat": -14.92469978,
    "lon": 13.57499981
  },
  "PBN": {
    "name": "Porto Amboim Airport",
    "city": "Kwanza Sul",
    "country": "AO",
    "lat": -10.72200012,
    "lon": 13.76550007
  },
  "CAV": {
    "name": "Cazombo Airport",
    "city": "Moxico",
    "country": "AO",
    "lat": -11.89309978,
    "lon": 22.91640091
  },
  "MEG": {
    "name": "Malanje Airport",
    "city": "Malange",
    "country": "AO",
    "lat": -9.525090218,
    "lon": 16.31240082
  },
  "GGC": {
    "name": "Lumbala N'guimbo Airport",
    "city": "Moxico",
    "country": "AO",
    "lat": -12.63987732,
    "lon": 22.5868206
  },
  "AZZ": {
    "name": "Ambriz Airport",
    "city": "Bengo",
    "country": "AO",
    "lat": -7.86221981,
    "lon": 13.11610031
  },
  "LZM": {
    "name": "Cuango-Luzamba Airport",
    "city": "Lunda Norte",
    "country": "AO",
    "lat": -9.115960121,
    "lon": 18.04929924
  },
  "VHC": {
    "name": "Henrique de Carvalho Airport",
    "city": "Lunda Sul",
    "country": "AO",
    "lat": -9.689069748,
    "lon": 20.43190002
  },
  "PGI": {
    "name": "Chitato Airport",
    "city": "Lunda Norte",
    "country": "AO",
    "lat": -7.358890057,
    "lon": 20.80470085
  },
  "DRC": {
    "name": "Dirico Airport",
    "city": "Kuando Kubango",
    "country": "AO",
    "lat": -17.98192406,
    "lon": 20.76806068
  },
  "ANL": {
    "name": "Andulo Airport",
    "city": "Bie",
    "country": "AO",
    "lat": -11.47229958,
    "lon": 16.71089935
  },
  "DUE": {
    "name": "Dundo Airport",
    "city": "Lunda Norte",
    "country": "AO",
    "lat": -7.400889874,
    "lon": 20.81850052
  },
  "LLT": {
    "name": "Lobito Airport",
    "city": "Benguela",
    "country": "AO",
    "lat": -12.375729,
    "lon": 13.561045
  },
  "CBT": {
    "name": "Catumbela Airport",
    "city": "Benguela",
    "country": "AO",
    "lat": -12.4792,
    "lon": 13.4869
  },
  "NDD": {
    "name": "Sumbe Airport",
    "city": "Benguela",
    "country": "AO",
    "lat": -11.16790009,
    "lon": 13.84749985
  },
  "CEO": {
    "name": "Waco Kungo Airport",
    "city": "Kwanza Sul",
    "country": "AO",
    "lat": -11.42640018,
    "lon": 15.10140038
  },
  "NDF": {
    "name": "N'dalatando Airport",
    "city": "Malange",
    "country": "AO",
    "lat": -9.275188446,
    "lon": 14.97724247
  },
  "JMB": {
    "name": "Jamba Airport",
    "city": "Huila",
    "country": "AO",
    "lat": -14.6981926,
    "lon": 16.07014847
  },
  "NOV": {
    "name": "Albano Machado Airport",
    "city": "Huambo",
    "country": "AO",
    "lat": -12.80889988,
    "lon": 15.76049995
  },
  "BUG": {
    "name": "Benguela Airport (Gen. V. Deslandes Airport)",
    "city": "Benguela",
    "country": "AO",
    "lat": -12.60900021,
    "lon": 13.40369987
  },
  "LBZ": {
    "name": "Lucapa Airport",
    "city": "Lunda Norte",
    "country": "AO",
    "lat": -8.445727348,
    "lon": 20.73208618
  },
  "LAD": {
    "name": "Quatro de Fevereiro Airport",
    "city": "Bengo",
    "country": "AO",
    "lat": -8.85837,
    "lon": 13.2312
  },
  "NZA": {
    "name": "Nzagi Airport",
    "city": "Lunda Norte",
    "country": "AO",
    "lat": -7.716939926,
    "lon": 21.35820007
  },
  "XGN": {
    "name": "Xangongo Airport",
    "city": "Cunene",
    "country": "AO",
    "lat": -16.7553997,
    "lon": 14.96529961
  },
  "CFF": {
    "name": "Cafunfo Airport",
    "city": "Lunda Norte",
    "country": "AO",
    "lat": -8.783610344,
    "lon": 17.98970032
  },
  "CAB": {
    "name": "Cabinda Airport",
    "city": "Cabinda",
    "country": "AO",
    "lat": -5.596990108,
    "lon": 12.18840027
  },
  "UAL": {
    "name": "Luau Airport",
    "city": "Moxico",
    "country": "AO",
    "lat": -10.71580029,
    "lon": 22.23110008
  },
  "SPP": {
    "name": "Menongue Airport",
    "city": "Kuando Kubango",
    "country": "AO",
    "lat": -14.6576004,
    "lon": 17.71980095
  },
  "GXG": {
    "name": "Negage Airport",
    "city": "Uige",
    "country": "AO",
    "lat": -7.754509926,
    "lon": 15.2876997
  },
  "SSY": {
    "name": "Mbanza Congo Airport",
    "city": "Zaire",
    "country": "AO",
    "lat": -6.269899845,
    "lon": 14.24699974
  },
  "CNZ": {
    "name": "Cangamba Airport",
    "city": "Moxico",
    "country": "AO",
    "lat": -13.7106,
    "lon": 19.861099
  },
  "TNM": {
    "name": "Teniente R. Marsh Airport",
    "city": "Antarctica",
    "country": "AQ",
    "lat": -62.19079971,
    "lon": -58.98669815
  },
  "EPA": {
    "name": "El Palomar Airport",
    "city": "Buenos Aires",
    "country": "AR",
    "lat": -34.6099,
    "lon": -58.6126
  },
  "RLO": {
    "name": "Valle del Conlara Airport",
    "city": "San Luis",
    "country": "AR",
    "lat": -32.38470078,
    "lon": -65.18650055
  },
  "COC": {
    "name": "Comodoro Pierrestegui Airport",
    "city": "Entre Rios",
    "country": "AR",
    "lat": -31.2969,
    "lon": -57.9966
  },
  "ROS": {
    "name": "Rosario - Islas Malvinas International Airport",
    "city": "Santa Fe",
    "country": "AR",
    "lat": -32.9036,
    "lon": -60.785
  },
  "ROY": {
    "name": "Rio Mayo Airport",
    "city": "Chubut",
    "country": "AR",
    "lat": -45.70389938,
    "lon": -70.24559784
  },
  "RSA": {
    "name": "Santa Rosa Airport",
    "city": "La Pampa",
    "country": "AR",
    "lat": -36.588299,
    "lon": -64.275703
  },
  "RYO": {
    "name": "Rio Turbio Airport",
    "city": "Santa Cruz",
    "country": "AR",
    "lat": -51.605,
    "lon": -72.2203
  },
  "RZA": {
    "name": "Santa Cruz Airport",
    "city": "Santa Cruz",
    "country": "AR",
    "lat": -50.0165,
    "lon": -68.5792
  },
  "AEP": {
    "name": "Jorge Newbery Airpark",
    "city": "Buenos Aires",
    "country": "AR",
    "lat": -34.5592,
    "lon": -58.4156
  },
  "GPO": {
    "name": "General Pico Airport",
    "city": "La Pampa",
    "country": "AR",
    "lat": -35.69620132,
    "lon": -63.75830078
  },
  "CNQ": {
    "name": "Doctor Fernando Piragine Niveyro International Airport",
    "city": "Corrientes",
    "country": "AR",
    "lat": -27.4455,
    "lon": -58.7619
  },
  "ELO": {
    "name": "Eldorado Airport",
    "city": "Misiones",
    "country": "AR",
    "lat": -26.39749908,
    "lon": -54.5746994
  },
  "SDE": {
    "name": "Vicecomodoro Angel de la Paz Aragones Airport",
    "city": "Santiago del Estero",
    "country": "AR",
    "lat": -27.76555634,
    "lon": -64.30999756
  },
  "AFA": {
    "name": "San Rafael Airport",
    "city": "Mendoza",
    "country": "AR",
    "lat": -34.588299,
    "lon": -68.4039
  },
  "HOS": {
    "name": "Chos Malal Airport",
    "city": "Neuquen",
    "country": "AR",
    "lat": -37.44469833,
    "lon": -70.22250366
  },
  "APZ": {
    "name": "Zapala Airport",
    "city": "Neuquen",
    "country": "AR",
    "lat": -38.975498,
    "lon": -70.113602
  },
  "SFN": {
    "name": "Sauce Viejo Airport",
    "city": "Santa Fe",
    "country": "AR",
    "lat": -31.7117,
    "lon": -60.8117
  },
  "COR": {
    "name": "Ingeniero Aeronautico Ambrosio L.V. Taravella International Airport (Pajas Blancas)",
    "city": "Cordoba",
    "country": "AR",
    "lat": -31.323601,
    "lon": -64.208
  },
  "SGV": {
    "name": "Sierra Grande Airport",
    "city": "Rio Negro",
    "country": "AR",
    "lat": -41.59170151,
    "lon": -65.33940125
  },
  "UZU": {
    "name": "Curuzu Cuatia Airport",
    "city": "Corrientes",
    "country": "AR",
    "lat": -29.7706,
    "lon": -57.9789
  },
  "SLA": {
    "name": "Martin Miguel de Guemes International Airport",
    "city": "Salta",
    "country": "AR",
    "lat": -24.8560009,
    "lon": -65.48619843
  },
  "MQD": {
    "name": "Maquinchao Airport",
    "city": "Rio Negro",
    "country": "AR",
    "lat": -41.24309921,
    "lon": -68.70780182
  },
  "OES": {
    "name": "Antoine de Saint Exupery Airport",
    "city": "Rio Negro",
    "country": "AR",
    "lat": -40.7512,
    "lon": -65.0343
  },
  "CPC": {
    "name": "Aviador Carlos Campos Airport",
    "city": "Neuquen",
    "country": "AR",
    "lat": -40.075401,
    "lon": -71.137299
  },
  "TTG": {
    "name": "Tartagal Airport",
    "city": "Salta",
    "country": "AR",
    "lat": -22.6196003,
    "lon": -63.79370117
  },
  "CSZ": {
    "name": "Brigadier Hector Eduardo Ruiz Airport",
    "city": "Buenos Aires",
    "country": "AR",
    "lat": -37.446098,
    "lon": -61.889301
  },
  "CTC": {
    "name": "Coronel Felipe Varela International Airport",
    "city": "Catamarca",
    "country": "AR",
    "lat": -28.59560013,
    "lon": -65.75170136
  },
  "OLN": {
    "name": "Lago Musters Airport",
    "city": "Chubut",
    "country": "AR",
    "lat": -45.582371,
    "lon": -68.999841
  },
  "CPG": {
    "name": "Carmen de Patagones Airport",
    "city": "Buenos Aires",
    "country": "AR",
    "lat": -40.7781,
    "lon": -62.9803
  },
  "SST": {
    "name": "Santa Teresita Airport",
    "city": "Buenos Aires",
    "country": "AR",
    "lat": -36.5423,
    "lon": -56.7218
  },
  "BRC": {
    "name": "San Carlos de Bariloche Airport",
    "city": "Rio Negro",
    "country": "AR",
    "lat": -41.151199,
    "lon": -71.157501
  },
  "ORA": {
    "name": "Oran Air",
    "city": "Salta",
    "country": "AR",
    "lat": -23.15279961,
    "lon": -64.32920074
  },
  "UAQ": {
    "name": "Domingo Faustino Sarmiento Airport",
    "city": "San Juan",
    "country": "AR",
    "lat": -31.571501,
    "lon": -68.418198
  },
  "ARR": {
    "name": "Alto Rio Senguer Airport",
    "city": "Chubut",
    "country": "AR",
    "lat": -45.013599,
    "lon": -70.812202
  },
  "OVR": {
    "name": "Olavarria Airport",
    "city": "Buenos Aires",
    "country": "AR",
    "lat": -36.88999939,
    "lon": -60.21659851
  },
  "OYA": {
    "name": "Goya Airport",
    "city": "Corrientes",
    "country": "AR",
    "lat": -29.1058,
    "lon": -59.2189
  },
  "OYO": {
    "name": "Tres Arroyos Airport",
    "city": "Buenos Aires",
    "country": "AR",
    "lat": -38.3869,
    "lon": -60.3297
  },
  "LUQ": {
    "name": "Brigadier Mayor Cesar Raul Ojeda Airport",
    "city": "San Luis",
    "country": "AR",
    "lat": -33.27320099,
    "lon": -66.35639954
  },
  "TUC": {
    "name": "Teniente General Benjamin Matienzo International Airport",
    "city": "Tucuman",
    "country": "AR",
    "lat": -26.8409,
    "lon": -65.104897
  },
  "CLX": {
    "name": "Clorinda Airport",
    "city": "Formosa",
    "country": "AR",
    "lat": -25.3036,
    "lon": -57.7344
  },
  "EMX": {
    "name": "El Maiten Airport",
    "city": "Chubut",
    "country": "AR",
    "lat": -42.02920151,
    "lon": -71.17250061
  },
  "PEH": {
    "name": "Comodoro Pedro Zanni Airport",
    "city": "Buenos Aires",
    "country": "AR",
    "lat": -35.8446,
    "lon": -61.8576
  },
  "PMQ": {
    "name": "Perito Moreno Airport",
    "city": "Santa Cruz",
    "country": "AR",
    "lat": -46.537899,
    "lon": -70.978699
  },
  "PMY": {
    "name": "El Tehuelche Airport",
    "city": "Chubut",
    "country": "AR",
    "lat": -42.7592,
    "lon": -65.1027
  },
  "ULA": {
    "name": "Capitan Jose Daniel Vazquez Airport",
    "city": "Santa Cruz",
    "country": "AR",
    "lat": -49.3068,
    "lon": -67.8026
  },
  "JUJ": {
    "name": "Gobernador Horacio Guzman International Airport",
    "city": "Jujuy",
    "country": "AR",
    "lat": -24.392799,
    "lon": -65.097801
  },
  "GNR": {
    "name": "Dr. Arturo Umberto Illia Airport",
    "city": "Rio Negro",
    "country": "AR",
    "lat": -39.0007019,
    "lon": -67.62049866
  },
  "VLG": {
    "name": "Villa Gesell Airport",
    "city": "Buenos Aires",
    "country": "AR",
    "lat": -37.2354,
    "lon": -57.0292
  },
  "JSM": {
    "name": "Jose de San Martin Airport",
    "city": "Chubut",
    "country": "AR",
    "lat": -44.04859924,
    "lon": -70.45890045
  },
  "PRA": {
    "name": "General Justo Jose de Urquiza Airport",
    "city": "Entre Rios",
    "country": "AR",
    "lat": -31.7948,
    "lon": -60.4804
  },
  "JNI": {
    "name": "Junin Airport",
    "city": "Buenos Aires",
    "country": "AR",
    "lat": -34.5459,
    "lon": -60.9306
  },
  "GHU": {
    "name": "Gualeguaychu Airport",
    "city": "Entre Rios",
    "country": "AR",
    "lat": -33.0103,
    "lon": -58.6131
  },
  "USH": {
    "name": "Ushuaia - Malvinas Argentinas International Airport",
    "city": "Tierra del Fuego",
    "country": "AR",
    "lat": -54.8433,
    "lon": -68.2958
  },
  "PRQ": {
    "name": "Presidencia Roque Saenz Pena Airport",
    "city": "Chaco",
    "country": "AR",
    "lat": -26.753611,
    "lon": -60.492222
  },
  "GGS": {
    "name": "Gobernador Gregores Airport",
    "city": "Santa Cruz",
    "country": "AR",
    "lat": -48.7831,
    "lon": -70.150002
  },
  "CRD": {
    "name": "General Enrique Mosconi International Airport",
    "city": "Chubut",
    "country": "AR",
    "lat": -45.7853,
    "lon": -67.4655
  },
  "EHL": {
    "name": "El Bolson Airport",
    "city": "Rio Negro",
    "country": "AR",
    "lat": -41.94319916,
    "lon": -71.53230286
  },
  "PSS": {
    "name": "Libertador General Jose de San Martin Airport",
    "city": "Misiones",
    "country": "AR",
    "lat": -27.3858,
    "lon": -55.9707
  },
  "TDL": {
    "name": "Tandil Airport",
    "city": "Buenos Aires",
    "country": "AR",
    "lat": -37.23740005,
    "lon": -59.22790146
  },
  "PUD": {
    "name": "Puerto Deseado Airport",
    "city": "Santa Cruz",
    "country": "AR",
    "lat": -47.7353,
    "lon": -65.9041
  },
  "RAF": {
    "name": "Rafaela Airport",
    "city": "Santa Fe",
    "country": "AR",
    "lat": -31.2825,
    "lon": -61.5017
  },
  "FTE": {
    "name": "Comandante Armando Tola International Airport",
    "city": "Santa Cruz",
    "country": "AR",
    "lat": -50.2803,
    "lon": -72.053101
  },
  "FMA": {
    "name": "Formosa International Airport (El Pucu Airport)",
    "city": "Formosa",
    "country": "AR",
    "lat": -26.2127,
    "lon": -58.2281
  },
  "VME": {
    "name": "Villa Reynolds Airport",
    "city": "San Luis",
    "country": "AR",
    "lat": -33.72990036,
    "lon": -65.38739777
  },
  "IRJ": {
    "name": "Capitan Vicente Almandos Almonacid Airport",
    "city": "La Rioja",
    "country": "AR",
    "lat": -29.38159943,
    "lon": -66.79579926
  },
  "VGS": {
    "name": "General Villegas Airport",
    "city": "Buenos Aires",
    "country": "AR",
    "lat": -35,
    "lon": -63
  },
  "LPG": {
    "name": "La Plata Airport",
    "city": "Buenos Aires",
    "country": "AR",
    "lat": -34.9722,
    "lon": -57.8947
  },
  "CUT": {
    "name": "Cutral Co Airport",
    "city": "Neuquen",
    "country": "AR",
    "lat": -38.93970108,
    "lon": -69.26460266
  },
  "CRR": {
    "name": "Ceres Airport",
    "city": "Santa Fe",
    "country": "AR",
    "lat": -29.872292,
    "lon": -61.927925
  },
  "LMD": {
    "name": "Los Menucos Airport",
    "city": "Rio Negro",
    "country": "AR",
    "lat": -40.817699,
    "lon": -68.074699
  },
  "RCQ": {
    "name": "Reconquista Airport",
    "city": "Santa Fe",
    "country": "AR",
    "lat": -29.2103,
    "lon": -59.68
  },
  "LLS": {
    "name": "Alferez Armando Rodriguez Airport",
    "city": "Formosa",
    "country": "AR",
    "lat": -24.72139931,
    "lon": -60.54880142
  },
  "RCU": {
    "name": "Las Higueras Airport",
    "city": "Cordoba",
    "country": "AR",
    "lat": -33.08509827,
    "lon": -64.26129913
  },
  "NCJ": {
    "name": "Sunchales Airport",
    "city": "Santa Fe",
    "country": "AR",
    "lat": -30.9575,
    "lon": -61.5283
  },
  "MJR": {
    "name": "Miramar Airport",
    "city": "Buenos Aires",
    "country": "AR",
    "lat": -38.2271,
    "lon": -57.8697
  },
  "RDS": {
    "name": "Rincon de los Sauces Airport",
    "city": "Neuquen",
    "country": "AR",
    "lat": -37.3905983,
    "lon": -68.90419769
  },
  "REL": {
    "name": "Almirante Marcos A. Zar Airport",
    "city": "Chubut",
    "country": "AR",
    "lat": -43.2105,
    "lon": -65.2703
  },
  "VDR": {
    "name": "Villa Dolores Airport",
    "city": "Cordoba",
    "country": "AR",
    "lat": -31.94519997,
    "lon": -65.14630127
  },
  "MCS": {
    "name": "Monte Caseros Airport",
    "city": "Corrientes",
    "country": "AR",
    "lat": -30.2719,
    "lon": -57.6402
  },
  "EZE": {
    "name": "Ministro Pistarini International Airport",
    "city": "Buenos Aires",
    "country": "AR",
    "lat": -34.8222,
    "lon": -58.5358
  },
  "LHS": {
    "name": "Las Heras Airport",
    "city": "Santa Cruz",
    "country": "AR",
    "lat": -46.53829956,
    "lon": -68.96530151
  },
  "LGS": {
    "name": "Comodoro D. Ricardo Salomon Airport",
    "city": "Mendoza",
    "country": "AR",
    "lat": -35.49359894,
    "lon": -69.57430267
  },
  "BHI": {
    "name": "Comandante Espora Airport",
    "city": "Buenos Aires",
    "country": "AR",
    "lat": -38.725,
    "lon": -62.1693
  },
  "MDQ": {
    "name": "Astor Piazzolla International Airport",
    "city": "Buenos Aires",
    "country": "AR",
    "lat": -37.9342,
    "lon": -57.5733
  },
  "LCP": {
    "name": "Loncopue Airport",
    "city": "Neuquen",
    "country": "AR",
    "lat": -38.081902,
    "lon": -70.643898
  },
  "BUE": {
    "name": "metropolitan area5",
    "city": "Buenos Aires",
    "country": "AR",
    "lat": -34.603684,
    "lon": -58.381559
  },
  "LCM": {
    "name": "La Cumbre Airport",
    "city": "Cordoba",
    "country": "AR",
    "lat": -31.00580025,
    "lon": -64.5318985
  },
  "RES": {
    "name": "Resistencia International Airport",
    "city": "Chaco",
    "country": "AR",
    "lat": -27.45,
    "lon": -59.0561
  },
  "NQN": {
    "name": "Presidente Peron International Air",
    "city": "Neuquen",
    "country": "AR",
    "lat": -38.949001,
    "lon": -68.155701
  },
  "MDX": {
    "name": "Mercedes Airport",
    "city": "Corrientes",
    "country": "AR",
    "lat": -29.22139931,
    "lon": -58.08779907
  },
  "CVH": {
    "name": "Caviahue Airport",
    "city": "Neuquen",
    "country": "AR",
    "lat": -37.851398,
    "lon": -71.009201
  },
  "CVI": {
    "name": "Caleta Olivia Airport",
    "city": "Santa Cruz",
    "country": "AR",
    "lat": -46.43180084,
    "lon": -67.51860046
  },
  "VDM": {
    "name": "Gobernador Edgardo Castello Airport",
    "city": "Rio Negro",
    "country": "AR",
    "lat": -40.8692,
    "lon": -63.0004
  },
  "RGA": {
    "name": "Hermes Quijada International Airport",
    "city": "Tierra del Fuego",
    "country": "AR",
    "lat": -53.7777,
    "lon": -67.7494
  },
  "RGL": {
    "name": "Piloto Civil Norberto Fernandez International Airport",
    "city": "Santa Cruz",
    "country": "AR",
    "lat": -51.6089,
    "lon": -69.3126
  },
  "EQS": {
    "name": "Esquel Airport",
    "city": "Chubut",
    "country": "AR",
    "lat": -42.90800095,
    "lon": -71.13950348
  },
  "MDZ": {
    "name": "Gov. Francisco Gabrielli International Airport (El Plumerillo)",
    "city": "Mendoza",
    "country": "AR",
    "lat": -32.83169937,
    "lon": -68.79290009
  },
  "RHD": {
    "name": "Termas de Rio Hondo Airport",
    "city": "Santiago del Estero",
    "country": "AR",
    "lat": -27.4966,
    "lon": -64.93595
  },
  "AOL": {
    "name": "Paso de los Libres Airport",
    "city": "Corrientes",
    "country": "AR",
    "lat": -29.6894,
    "lon": -57.1521
  },
  "IGR": {
    "name": "Cataratas del Iguazu International Airport",
    "city": "Misiones",
    "country": "AR",
    "lat": -25.737301,
    "lon": -54.4734
  },
  "CNT": {
    "name": "Charata Airport",
    "city": "Chaco",
    "country": "AR",
    "lat": -27.2164,
    "lon": -61.2103
  },
  "CCT": {
    "name": "Colonia Catriel Airport",
    "city": "Rio Negro",
    "country": "AR",
    "lat": -37.91019821,
    "lon": -67.83499908
  },
  "VCF": {
    "name": "Valcheta Airport",
    "city": "Rio Negro",
    "country": "AR",
    "lat": -40.70000076,
    "lon": -66.15000153
  },
  "IGB": {
    "name": "Ingeniero Jacobacci Airport (Capitan FAA H. R. Borden Airport)",
    "city": "Rio Negro",
    "country": "AR",
    "lat": -41.32089996,
    "lon": -69.57489777
  },
  "NEC": {
    "name": "Necochea Airport",
    "city": "Buenos Aires",
    "country": "AR",
    "lat": -38.4831,
    "lon": -58.8172
  },
  "PPG": {
    "name": "Pago Pago International Airport",
    "city": "Eastern District",
    "country": "AS",
    "lat": -14.33100033,
    "lon": -170.7100067
  },
  "TAV": {
    "name": "Tau Airport",
    "city": "Eastern District",
    "country": "AS",
    "lat": -14.22920036,
    "lon": -169.5110016
  },
  "OFU": {
    "name": "Ofu Airport",
    "city": "Eastern District",
    "country": "AS",
    "lat": -14.1844,
    "lon": -169.669998
  },
  "LNZ": {
    "name": "Linz Airport (Blue Danube Airport)",
    "city": "Oberosterreich",
    "country": "AT",
    "lat": 48.2332,
    "lon": 14.1875
  },
  "SZG": {
    "name": "Salzburg Airport",
    "city": "Salzburg",
    "country": "AT",
    "lat": 47.79330063,
    "lon": 13.00430012
  },
  "KLU": {
    "name": "Klagenfurt Airport",
    "city": "Karnten",
    "country": "AT",
    "lat": 46.642502,
    "lon": 14.3377
  },
  "GRZ": {
    "name": "Graz Airport",
    "city": "Steiermark",
    "country": "AT",
    "lat": 46.99110031,
    "lon": 15.43959999
  },
  "INN": {
    "name": "Innsbruck Airport (Kranebitten Airport)",
    "city": "Tirol",
    "country": "AT",
    "lat": 47.260201,
    "lon": 11.344
  },
  "VIE": {
    "name": "Vienna International Airport",
    "city": "Niederosterreich",
    "country": "AT",
    "lat": 48.11029816,
    "lon": 16.56970024
  },
  "HOH": {
    "name": "Hohenems-Dornbirn Airport",
    "city": "Vorarlberg",
    "country": "AT",
    "lat": 47.384998,
    "lon": 9.7
  },
  "PHQ": {
    "name": "The Monument Airport",
    "city": "Queensland",
    "country": "AU",
    "lat": -21.81110001,
    "lon": 139.923996
  },
  "CBC": {
    "name": "Cherrabun Airport",
    "city": "Western Australia",
    "country": "AU",
    "lat": -18.91777778,
    "lon": 125.5377778
  },
  "MSF": {
    "name": "Mount Swan Airport",
    "city": "Northern Territory",
    "country": "AU",
    "lat": -22.624696,
    "lon": 135.034512
  },
  "AAB": {
    "name": "Arrabury Airport",
    "city": "Queensland",
    "country": "AU",
    "lat": -26.693023,
    "lon": 141.047771
  },
  "XTO": {
    "name": "Taroom Airport",
    "city": "Queensland",
    "country": "AU",
    "lat": -25.80170059,
    "lon": 149.8999939
  },
  "MXU": {
    "name": "Mullewa Airport",
    "city": "Western Australia",
    "country": "AU",
    "lat": -28.47500038,
    "lon": 115.5169983
  },
  "CED": {
    "name": "Ceduna Airport",
    "city": "South Australia",
    "country": "AU",
    "lat": -32.13059998,
    "lon": 133.7100067
  },
  "RSB": {
    "name": "Roseberth Airport",
    "city": "Queensland",
    "country": "AU",
    "lat": -25.83329964,
    "lon": 139.6499939
  },
  "HVB": {
    "name": "Hervey Bay Airport",
    "city": "Queensland",
    "country": "AU",
    "lat": -25.31889915,
    "lon": 152.8800049
  },
  "RRV": {
    "name": "Robinson River Airport",
    "city": "Northern Territory",
    "country": "AU",
    "lat": -16.71829987,
    "lon": 136.9450073
  },
  "RRE": {
    "name": "Marree Airport",
    "city": "South Australia",
    "country": "AU",
    "lat": -29.66329956,
    "lon": 138.0650024
  },
  "DCN": {
    "name": "RAAF Base Curtin",
    "city": "Western Australia",
    "country": "AU",
    "lat": -17.58139992,
    "lon": 123.8280029
  },
  "RPV": {
    "name": "Roper Valley Airport",
    "city": "Northern Territory",
    "country": "AU",
    "lat": -14.9215,
    "lon": 134.05
  },
  "XTG": {
    "name": "Thargomindah Airport",
    "city": "Queensland",
    "country": "AU",
    "lat": -27.9864006,
    "lon": 143.8110046
  },
  "HWK": {
    "name": "Wilpena Pound Airport",
    "city": "South Australia",
    "country": "AU",
    "lat": -31.85590744,
    "lon": 138.4680786
  },
  "MXD": {
    "name": "Marion Downs Airport",
    "city": "Queensland",
    "country": "AU",
    "lat": -23.363702,
    "lon": 139.649663
  },
  "RPM": {
    "name": "Ngukurr Airport",
    "city": "Northern Territory",
    "country": "AU",
    "lat": -14.72280025,
    "lon": 134.746994
  },
  "HXX": {
    "name": "Hay Airport",
    "city": "New South Wales",
    "country": "AU",
    "lat": -34.53139877,
    "lon": 144.8300018
  },
  "DDN": {
    "name": "Delta Downs Airport",
    "city": "Queensland",
    "country": "AU",
    "lat": -16.99169922,
    "lon": 141.3170013
  },
  "CES": {
    "name": "Cessnock Airport",
    "city": "New South Wales",
    "country": "AU",
    "lat": -32.787498,
    "lon": 151.341995
  },
  "RPB": {
    "name": "Roper Bar Airport",
    "city": "Northern Territory",
    "country": "AU",
    "lat": -14.734814,
    "lon": 134.525485
  },
  "ROK": {
    "name": "Rockhampton Airport",
    "city": "Queensland",
    "country": "AU",
    "lat": -23.38190079,
    "lon": 150.4750061
  },
  "ROH": {
    "name": "Robinhood Airport",
    "city": "Queensland",
    "country": "AU",
    "lat": -18.84499931,
    "lon": 143.7100067
  },
  "MWY": {
    "name": "Miranda Downs Airport",
    "city": "Queensland",
    "country": "AU",
    "lat": -17.328899,
    "lon": 141.886002
  },
  "LRE": {
    "name": "Longreach Airport",
    "city": "Queensland",
    "country": "AU",
    "lat": -23.43420029,
    "lon": 144.2799988
  },
  "RMK": {
    "name": "Renmark Airport",
    "city": "South Australia",
    "country": "AU",
    "lat": -34.19639969,
    "lon": 140.673996
  },
  "RMA": {
    "name": "Roma Airport",
    "city": "Queensland",
    "country": "AU",
    "lat": -26.54500008,
    "lon": 148.7749939
  },
  "MWT": {
    "name": "Moolawatana Airport",
    "city": "South Australia",
    "country": "AU",
    "lat": -29.9069,
    "lon": 139.765
  },
  "RLP": {
    "name": "Rosella Plains Airport",
    "city": "Queensland",
    "country": "AU",
    "lat": -18.4253,
    "lon": 144.4587
  },
  "ABG": {
    "name": "Abingdon Airport",
    "city": "Queensland",
    "country": "AU",
    "lat": -17.61669922,
    "lon": 143.1670074
  },
  "ABH": {
    "name": "Alpha Airport",
    "city": "Queensland",
    "country": "AU",
    "lat": -23.646099,
    "lon": 146.584
  },
  "XRH": {
    "name": "RAAF Base Richmond",
    "city": "New South Wales",
    "country": "AU",
    "lat": -33.600601,
    "lon": 150.781006
  },
  "RKY": {
    "name": "Rokeby Airport",
    "city": "Queensland",
    "country": "AU",
    "lat": -13.6434,
    "lon": 142.641
  },
  "IDK": {
    "name": "Indulkana Airport",
    "city": "South Australia",
    "country": "AU",
    "lat": -26.9666996,
    "lon": 133.3249969
  },
  "MWB": {
    "name": "Morawa Airport",
    "city": "Western Australia",
    "country": "AU",
    "lat": -29.20170021,
    "lon": 116.0220032
  },
  "ABM": {
    "name": "Northern Peninsula Airport",
    "city": "Queensland",
    "country": "AU",
    "lat": -10.9508,
    "lon": 142.459
  },
  "IFF": {
    "name": "Iffley Airport",
    "city": "Queensland",
    "country": "AU",
    "lat": -18.89999962,
    "lon": 141.2169952
  },
  "IFL": {
    "name": "Innisfail Airport",
    "city": "Queensland",
    "country": "AU",
    "lat": -17.55940056,
    "lon": 146.0119934
  },
  "IGH": {
    "name": "Ingham Airport",
    "city": "Queensland",
    "country": "AU",
    "lat": -18.66060066,
    "lon": 146.1519928
  },
  "BHQ": {
    "name": "Broken Hill Airport",
    "city": "New South Wales",
    "country": "AU",
    "lat": -32.00139999,
    "lon": 141.4720001
  },
  "ZNE": {
    "name": "Newman Airport",
    "city": "Western Australia",
    "country": "AU",
    "lat": -23.4178009,
    "lon": 119.8030014
  },
  "BHS": {
    "name": "Bathurst Airport",
    "city": "New South Wales",
    "country": "AU",
    "lat": -33.40940094,
    "lon": 149.6519928
  },
  "BHT": {
    "name": "Brighton Downs Airport",
    "city": "Queensland",
    "country": "AU",
    "lat": -23.36388889,
    "lon": 141.5627778
  },
  "CFH": {
    "name": "Clifton Hills Airport",
    "city": "South Australia",
    "country": "AU",
    "lat": -27.0182991,
    "lon": 138.8919983
  },
  "CFI": {
    "name": "Camfield Airport",
    "city": "Northern Territory",
    "country": "AU",
    "lat": -17.02169991,
    "lon": 131.3269958
  },
  "ABX": {
    "name": "Albury Airport",
    "city": "New South Wales",
    "country": "AU",
    "lat": -36.06779861,
    "lon": 146.9579926
  },
  "MVU": {
    "name": "Musgrave Airport",
    "city": "Queensland",
    "country": "AU",
    "lat": -14.7757,
    "lon": 143.5047
  },
  "RHL": {
    "name": "Roy Hill Station Airport",
    "city": "Western Australia",
    "country": "AU",
    "lat": -22.62581589,
    "lon": 119.9590302
  },
  "IKP": {
    "name": "Inkerman Airport",
    "city": "Queensland",
    "country": "AU",
    "lat": -16.27499962,
    "lon": 141.4420013
  },
  "INJ": {
    "name": "Injune Airport",
    "city": "Queensland",
    "country": "AU",
    "lat": -25.851,
    "lon": 148.5497
  },
  "CFP": {
    "name": "Carpentaria Downs Airport",
    "city": "Queensland",
    "country": "AU",
    "lat": -18.7166996,
    "lon": 144.3170013
  },
  "RCN": {
    "name": "American River Airport",
    "city": "South Australia",
    "country": "AU",
    "lat": -35.7574,
    "lon": 137.7759
  },
  "DFP": {
    "name": "Drumduff Airport",
    "city": "Queensland",
    "country": "AU",
    "lat": -16.0529995,
    "lon": 143.0119934
  },
  "CFS": {
    "name": "Coffs Harbour Airport",
    "city": "New South Wales",
    "country": "AU",
    "lat": -30.32060051,
    "lon": 153.1159973
  },
  "RCM": {
    "name": "Richmond Airport",
    "city": "Queensland",
    "country": "AU",
    "lat": -20.70190048,
    "lon": 143.1150055
  },
  "INM": {
    "name": "Innamincka Airport",
    "city": "South Australia",
    "country": "AU",
    "lat": -27.70000076,
    "lon": 140.7330017
  },
  "RBU": {
    "name": "Roebourne Airport",
    "city": "Western Australia",
    "country": "AU",
    "lat": -20.76169968,
    "lon": 117.1569977
  },
  "DGD": {
    "name": "Dalgaranga Airport",
    "city": "Western Australia",
    "country": "AU",
    "lat": -27.83027778,
    "lon": 117.3163889
  },
  "DGE": {
    "name": "Mudgee Airport",
    "city": "New South Wales",
    "country": "AU",
    "lat": -32.5625,
    "lon": 149.6109924
  },
  "RBS": {
    "name": "Orbost Airport",
    "city": "Victoria",
    "country": "AU",
    "lat": -37.79000092,
    "lon": 148.6100006
  },
  "RBC": {
    "name": "Robinvale Airport",
    "city": "Victoria",
    "country": "AU",
    "lat": -34.65000153,
    "lon": 142.7830048
  },
  "MVK": {
    "name": "Mulka Airport",
    "city": "South Australia",
    "country": "AU",
    "lat": -28.3477993,
    "lon": 138.6499939
  },
  "MVH": {
    "name": "Macksville Airport",
    "city": "New South Wales",
    "country": "AU",
    "lat": -30.7,
    "lon": 152.917
  },
  "IRG": {
    "name": "Lockhart River Airport",
    "city": "Queensland",
    "country": "AU",
    "lat": -12.7869,
    "lon": 143.304993
  },
  "XMY": {
    "name": "Yam Island Airport",
    "city": "Queensland",
    "country": "AU",
    "lat": -9.901109695,
    "lon": 142.776001
  },
  "BIP": {
    "name": "Bulimba Airport",
    "city": "Queensland",
    "country": "AU",
    "lat": -16.88080025,
    "lon": 143.4790039
  },
  "RAM": {
    "name": "Ramingining Airport",
    "city": "Northern Territory",
    "country": "AU",
    "lat": -12.35639954,
    "lon": 134.897995
  },
  "ISA": {
    "name": "Mount Isa Airport",
    "city": "Queensland",
    "country": "AU",
    "lat": -20.66390038,
    "lon": 139.4889984
  },
  "ISI": {
    "name": "Isisford Airport",
    "city": "Queensland",
    "country": "AU",
    "lat": -24.25830078,
    "lon": 144.4250031
  },
  "XML": {
    "name": "Minlaton Airport",
    "city": "South Australia",
    "country": "AU",
    "lat": -34.75,
    "lon": 137.5330048
  },
  "IVR": {
    "name": "Inverell Airport",
    "city": "New South Wales",
    "country": "AU",
    "lat": -29.88829994,
    "lon": 151.1439972
  },
  "YNN": {
    "name": "Yandicoogina Airport",
    "city": "Western Australia",
    "country": "AU",
    "lat": 59.4875,
    "lon": -97.780278
  },
  "BIW": {
    "name": "Billiluna Airport",
    "city": "Western Australia",
    "country": "AU",
    "lat": -19.56669998,
    "lon": 127.6669998
  },
  "XMC": {
    "name": "Mallacoota Airport",
    "city": "Victoria",
    "country": "AU",
    "lat": -37.59830093,
    "lon": 149.7200012
  },
  "IVW": {
    "name": "Inverway Airport",
    "city": "Northern Territory",
    "country": "AU",
    "lat": -17.84110069,
    "lon": 129.6430054
  },
  "LST": {
    "name": "Launceston Airport",
    "city": "Tasmania",
    "country": "AU",
    "lat": -41.54529953,
    "lon": 147.2140045
  },
  "PXH": {
    "name": "Prominent Hill Airport",
    "city": "South Australia",
    "country": "AU",
    "lat": -29.716,
    "lon": 135.5244
  },
  "DHD": {
    "name": "Durham Downs Airport",
    "city": "Queensland",
    "country": "AU",
    "lat": -27.07500076,
    "lon": 141.8999939
  },
  "ADL": {
    "name": "Adelaide Airport",
    "city": "South Australia",
    "country": "AU",
    "lat": -34.945,
    "lon": 138.531006
  },
  "JAB": {
    "name": "Jabiru Airport",
    "city": "Northern Territory",
    "country": "AU",
    "lat": -12.6583004,
    "lon": 132.8930054
  },
  "JAD": {
    "name": "Jandakot Airport",
    "city": "Western Australia",
    "country": "AU",
    "lat": -32.09749985,
    "lon": 115.8809967
  },
  "ADO": {
    "name": "Andamooka Airport",
    "city": "South Australia",
    "country": "AU",
    "lat": -30.438299,
    "lon": 137.136993
  },
  "LSY": {
    "name": "Lismore Airport",
    "city": "New South Wales",
    "country": "AU",
    "lat": -28.83029938,
    "lon": 153.2599945
  },
  "CGV": {
    "name": "Caiguna Airport",
    "city": "Western Australia",
    "country": "AU",
    "lat": -32.26499939,
    "lon": 125.4929962
  },
  "JCK": {
    "name": "Julia Creek Airport",
    "city": "Queensland",
    "country": "AU",
    "lat": -20.66830063,
    "lon": 141.7230072
  },
  "LTB": {
    "name": "Latrobe Airport",
    "city": "Tasmania",
    "country": "AU",
    "lat": -41.23518803,
    "lon": 146.3961697
  },
  "MUQ": {
    "name": "Muccan Station Airport",
    "city": "Western Australia",
    "country": "AU",
    "lat": -20.65889931,
    "lon": 120.0670013
  },
  "ZGL": {
    "name": "South Galway Airport",
    "city": "Queensland",
    "country": "AU",
    "lat": -25.68330002,
    "lon": 142.1080017
  },
  "MUP": {
    "name": "Mulga Park Airport",
    "city": "Northern Territory",
    "country": "AU",
    "lat": -25.86000061,
    "lon": 131.6499939
  },
  "PUG": {
    "name": "Port Augusta Airport",
    "city": "South Australia",
    "country": "AU",
    "lat": -32.50690079,
    "lon": 137.7169952
  },
  "PTJ": {
    "name": "Portland Airport",
    "city": "Victoria",
    "country": "AU",
    "lat": -38.31809998,
    "lon": 141.470993
  },
  "PRD": {
    "name": "Pardoo Airport",
    "city": "Western Australia",
    "country": "AU",
    "lat": -20.11750031,
    "lon": 119.5899963
  },
  "PQQ": {
    "name": "Port Macquarie Airport",
    "city": "New South Wales",
    "country": "AU",
    "lat": -31.43580055,
    "lon": 152.8630066
  },
  "PPP": {
    "name": "Whitsunday Coast Airport",
    "city": "Queensland",
    "country": "AU",
    "lat": -20.49500084,
    "lon": 148.552002
  },
  "PPI": {
    "name": "Port Pirie Airport",
    "city": "South Australia",
    "country": "AU",
    "lat": -33.23889923,
    "lon": 137.9949951
  },
  "JUN": {
    "name": "Jundah Airport",
    "city": "Queensland",
    "country": "AU",
    "lat": -24.8416996,
    "lon": 143.0579987
  },
  "JUR": {
    "name": "Jurien Bay Airport",
    "city": "Western Australia",
    "country": "AU",
    "lat": -30.301629,
    "lon": 115.055914
  },
  "KAX": {
    "name": "Kalbarri Airport",
    "city": "Western Australia",
    "country": "AU",
    "lat": -27.692813,
    "lon": 114.259169
  },
  "KBB": {
    "name": "Kirkimbie Airport",
    "city": "Northern Territory",
    "country": "AU",
    "lat": -17.7791996,
    "lon": 129.2100067
  },
  "KBD": {
    "name": "Kimberley Downs Airport",
    "city": "Western Australia",
    "country": "AU",
    "lat": -17.39780045,
    "lon": 124.3550034
  },
  "LTP": {
    "name": "Lyndhurst Airport",
    "city": "Queensland",
    "country": "AU",
    "lat": -19.19580078,
    "lon": 144.3710022
  },
  "KBJ": {
    "name": "Kings Canyon Airport",
    "city": "Northern Territory",
    "country": "AU",
    "lat": -24.26000023,
    "lon": 131.4900055
  },
  "PMK": {
    "name": "Palm Island Airport",
    "city": "Queensland",
    "country": "AU",
    "lat": -18.75530052,
    "lon": 146.5809937
  },
  "KBY": {
    "name": "Streaky Bay Airport",
    "city": "South Australia",
    "country": "AU",
    "lat": -32.83580017,
    "lon": 134.2929993
  },
  "KCE": {
    "name": "Collinsville Airport",
    "city": "Queensland",
    "country": "AU",
    "lat": -20.59670067,
    "lon": 147.8600006
  },
  "PLO": {
    "name": "Port Lincoln Airport",
    "city": "South Australia",
    "country": "AU",
    "lat": -34.6053009,
    "lon": 135.8800049
  },
  "KCS": {
    "name": "Kings Creek Station Airport",
    "city": "Northern Territory",
    "country": "AU",
    "lat": -24.42329979,
    "lon": 131.8350067
  },
  "PKT": {
    "name": "Port Keats Airfield",
    "city": "Northern Territory",
    "country": "AU",
    "lat": -14.25,
    "lon": 129.529007
  },
  "LTV": {
    "name": "Lotus Vale Station Airport",
    "city": "Queensland",
    "country": "AU",
    "lat": -17.04829979,
    "lon": 141.3760071
  },
  "KDB": {
    "name": "Kambalda Airport",
    "city": "Western Australia",
    "country": "AU",
    "lat": -31.1907,
    "lon": 121.5978
  },
  "KDS": {
    "name": "Kamaran Downs Airport",
    "city": "Queensland",
    "country": "AU",
    "lat": -24.3388,
    "lon": 139.2785
  },
  "PKE": {
    "name": "Parkes Airport",
    "city": "New South Wales",
    "country": "AU",
    "lat": -33.13140106,
    "lon": 148.2389984
  },
  "PHE": {
    "name": "Port Hedland International Airport",
    "city": "Western Australia",
    "country": "AU",
    "lat": -20.37779999,
    "lon": 118.6259995
  },
  "MFL": {
    "name": "Mount Full Stop Airport",
    "city": "Queensland",
    "country": "AU",
    "lat": -19.67,
    "lon": 144.8852
  },
  "ZBO": {
    "name": "Bowen Airport",
    "city": "Queensland",
    "country": "AU",
    "lat": -20.0182991,
    "lon": 148.2149963
  },
  "KFE": {
    "name": "Fortescue Dave Forrest Airport",
    "city": "Western Australia",
    "country": "AU",
    "lat": -22.290754,
    "lon": 119.437143
  },
  "MTQ": {
    "name": "Mitchell Airport",
    "city": "Queensland",
    "country": "AU",
    "lat": -26.48329926,
    "lon": 147.9369965
  },
  "MTL": {
    "name": "Maitland Airport",
    "city": "New South Wales",
    "country": "AU",
    "lat": -32.701265,
    "lon": 151.492912
  },
  "ZBL": {
    "name": "Biloela Airport",
    "city": "Queensland",
    "country": "AU",
    "lat": -24.4,
    "lon": 150.51
  },
  "KFG": {
    "name": "Kalkgurung Airport",
    "city": "Northern Territory",
    "country": "AU",
    "lat": -17.43190002,
    "lon": 130.8079987
  },
  "KGC": {
    "name": "Kingscote Airport",
    "city": "South Australia",
    "country": "AU",
    "lat": -35.71390152,
    "lon": 137.5209961
  },
  "BKP": {
    "name": "Barkly Downs Airport",
    "city": "Queensland",
    "country": "AU",
    "lat": -20.49583333,
    "lon": 138.4747222
  },
  "BKQ": {
    "name": "Blackall Airport",
    "city": "Queensland",
    "country": "AU",
    "lat": -24.42779922,
    "lon": 145.4290009
  },
  "KGI": {
    "name": "Kalgoorlie-Boulder Airport",
    "city": "Western Australia",
    "country": "AU",
    "lat": -30.7894001,
    "lon": 121.461998
  },
  "CIE": {
    "name": "Collie Airport",
    "city": "Western Australia",
    "country": "AU",
    "lat": -33.36669922,
    "lon": 116.2170029
  },
  "PEY": {
    "name": "Penong Airport",
    "city": "South Australia",
    "country": "AU",
    "lat": -31.91670036,
    "lon": 133
  },
  "DKI": {
    "name": "Dunk Island Airport",
    "city": "Queensland",
    "country": "AU",
    "lat": -17.94169998,
    "lon": 146.1399994
  },
  "KGR": {
    "name": "Kulgera Airport",
    "city": "Northern Territory",
    "country": "AU",
    "lat": -25.84280014,
    "lon": 133.2920074
  },
  "PER": {
    "name": "Perth Airport",
    "city": "Western Australia",
    "country": "AU",
    "lat": -31.94029999,
    "lon": 115.9670029
  },
  "PEP": {
    "name": "Peppimenarti Airport",
    "city": "Northern Territory",
    "country": "AU",
    "lat": -14.14420033,
    "lon": 130.0910034
  },
  "DKV": {
    "name": "Docker River Airport",
    "city": "Northern Territory",
    "country": "AU",
    "lat": -24.86000061,
    "lon": 129.0700073
  },
  "KGY": {
    "name": "Kingaroy Airport",
    "city": "Queensland",
    "country": "AU",
    "lat": -26.5807991,
    "lon": 151.8410034
  },
  "PEA": {
    "name": "Penneshaw Airport",
    "city": "South Australia",
    "country": "AU",
    "lat": -35.75584629,
    "lon": 137.9628754
  },
  "PDN": {
    "name": "Parndana Airport",
    "city": "South Australia",
    "country": "AU",
    "lat": -35.807,
    "lon": 137.264
  },
  "PDE": {
    "name": "Pandie Pandie Airport",
    "city": "South Australia",
    "country": "AU",
    "lat": -26.11669922,
    "lon": 139.3999939
  },
  "MTD": {
    "name": "Mount Sandford Station Airport",
    "city": "Northern Territory",
    "country": "AU",
    "lat": -16.97830009,
    "lon": 130.5549927
  },
  "PBO": {
    "name": "Paraburdoo Airport",
    "city": "Western Australia",
    "country": "AU",
    "lat": -23.17110062,
    "lon": 117.7450027
  },
  "AGW": {
    "name": "Agnew Airport",
    "city": "Queensland",
    "country": "AU",
    "lat": -12.14560032,
    "lon": 142.1490021
  },
  "KKP": {
    "name": "Koolburra Airport",
    "city": "Queensland",
    "country": "AU",
    "lat": -15.31890011,
    "lon": 143.9550018
  },
  "OYN": {
    "name": "Ouyen Airport",
    "city": "Victoria",
    "country": "AU",
    "lat": -35.08901243,
    "lon": 142.3544884
  },
  "LUT": {
    "name": "New Laura Airport",
    "city": "Queensland",
    "country": "AU",
    "lat": -15.18330002,
    "lon": 144.3670044
  },
  "LUU": {
    "name": "Laura Airport",
    "city": "Queensland",
    "country": "AU",
    "lat": -15.55000019,
    "lon": 144.4499969
  },
  "DLK": {
    "name": "Dulkaninna Airport",
    "city": "South Australia",
    "country": "AU",
    "lat": -29.01329994,
    "lon": 138.4810028
  },
  "XCO": {
    "name": "Colac Airport",
    "city": "Victoria",
    "country": "AU",
    "lat": -38.286701,
    "lon": 143.679993
  },
  "OXY": {
    "name": "Morney Airport",
    "city": "Queensland",
    "country": "AU",
    "lat": -25.35829926,
    "lon": 141.4329987
  },
  "OXO": {
    "name": "Orientos Airport",
    "city": "Queensland",
    "country": "AU",
    "lat": -28.0598,
    "lon": 141.5361
  },
  "MGV": {
    "name": "Margaret River Station Airport",
    "city": "Western Australia",
    "country": "AU",
    "lat": -18.62170029,
    "lon": 126.8830032
  },
  "BLN": {
    "name": "Benalla Airport",
    "city": "Victoria",
    "country": "AU",
    "lat": -36.55189896,
    "lon": 146.0070038
  },
  "KML": {
    "name": "Kamileroi Airport",
    "city": "Queensland",
    "country": "AU",
    "lat": -19.375,
    "lon": 140.0570068
  },
  "DLV": {
    "name": "Delissaville Airport",
    "city": "Northern Territory",
    "country": "AU",
    "lat": -12.55000019,
    "lon": 130.6849976
  },
  "OSO": {
    "name": "Osborne Mine Airport",
    "city": "Queensland",
    "country": "AU",
    "lat": -22.08169937,
    "lon": 140.5549927
  },
  "KNI": {
    "name": "Katanning Airport",
    "city": "Western Australia",
    "country": "AU",
    "lat": -33.71670151,
    "lon": 117.6330032
  },
  "BLS": {
    "name": "Bollon Airport",
    "city": "Queensland",
    "country": "AU",
    "lat": -28.05830002,
    "lon": 147.4830017
  },
  "BLT": {
    "name": "Blackwater Airport",
    "city": "Queensland",
    "country": "AU",
    "lat": -23.60309982,
    "lon": 148.8070068
  },
  "CJF": {
    "name": "Coondewanna Airport",
    "city": "Western Australia",
    "country": "AU",
    "lat": -22.9666996,
    "lon": 118.8130035
  },
  "KNS": {
    "name": "King Island Airport",
    "city": "Tasmania",
    "country": "AU",
    "lat": -39.87749863,
    "lon": 143.878006
  },
  "KNX": {
    "name": "East Kimberley Regional Airport",
    "city": "Western Australia",
    "country": "AU",
    "lat": -15.77810001,
    "lon": 128.7079926
  },
  "DMD": {
    "name": "Doomadgee Airport",
    "city": "Queensland",
    "country": "AU",
    "lat": -17.9403,
    "lon": 138.822006
  },
  "ORS": {
    "name": "Orpheus Island Resort Waterport",
    "city": "Queensland",
    "country": "AU",
    "lat": -18.634,
    "lon": 146.5
  },
  "ORR": {
    "name": "Yorketown Airport",
    "city": "South Australia",
    "country": "AU",
    "lat": -35,
    "lon": 137.6170044
  },
  "LVO": {
    "name": "Laverton Airport",
    "city": "Western Australia",
    "country": "AU",
    "lat": -28.61359978,
    "lon": 122.4240036
  },
  "YLG": {
    "name": "Yalgoo Airport",
    "city": "Western Australia",
    "country": "AU",
    "lat": -28.3553009,
    "lon": 116.6839981
  },
  "KOH": {
    "name": "Koolatah Airport",
    "city": "Queensland",
    "country": "AU",
    "lat": -15.88860035,
    "lon": 142.4389954
  },
  "OPI": {
    "name": "Oenpelli Airport",
    "city": "Queensland",
    "country": "AU",
    "lat": -12.32499981,
    "lon": 133.0059967
  },
  "MRZ": {
    "name": "Moree Airport",
    "city": "New South Wales",
    "country": "AU",
    "lat": -29.49889946,
    "lon": 149.8450012
  },
  "BME": {
    "name": "Broome International Airport",
    "city": "Western Australia",
    "country": "AU",
    "lat": -17.94470024,
    "lon": 122.2320023
  },
  "OOR": {
    "name": "Mooraberree Airport",
    "city": "Queensland",
    "country": "AU",
    "lat": -25.25,
    "lon": 140.9830017
  },
  "OOM": {
    "name": "Cooma-Snowy Mountains Airport",
    "city": "New South Wales",
    "country": "AU",
    "lat": -36.30059814,
    "lon": 148.973999
  },
  "MRT": {
    "name": "Moroak Airport",
    "city": "Northern Territory",
    "country": "AU",
    "lat": -14.818133,
    "lon": 133.700594
  },
  "KPP": {
    "name": "Kalpowar Airport",
    "city": "Queensland",
    "country": "AU",
    "lat": -14.89,
    "lon": 144.22
  },
  "OOL": {
    "name": "Gold Coast Airport (Coolangatta Airport)",
    "city": "Queensland",
    "country": "AU",
    "lat": -28.1644001,
    "lon": 153.5050049
  },
  "LWH": {
    "name": "Lawn Hill Airport",
    "city": "Queensland",
    "country": "AU",
    "lat": -18.56830025,
    "lon": 138.6349945
  },
  "KPS": {
    "name": "Kempsey Airport",
    "city": "New South Wales",
    "country": "AU",
    "lat": -31.07439995,
    "lon": 152.7700043
  },
  "DNB": {
    "name": "Dunbar Airport",
    "city": "Queensland",
    "country": "AU",
    "lat": -16.04999924,
    "lon": 142.3999939
  },
  "CKI": {
    "name": "Croker Island Airport",
    "city": "Northern Territory",
    "country": "AU",
    "lat": -11.16499996,
    "lon": 132.4830017
  },
  "ONS": {
    "name": "Onslow Airport",
    "city": "Western Australia",
    "country": "AU",
    "lat": -21.66830063,
    "lon": 115.112999
  },
  "DNG": {
    "name": "Doongan Airport",
    "city": "Western Australia",
    "country": "AU",
    "lat": -15.386429,
    "lon": 126.302235
  },
  "BMP": {
    "name": "Brampton Island Airport",
    "city": "Queensland",
    "country": "AU",
    "lat": -20.80330086,
    "lon": 149.2700043
  },
  "MRP": {
    "name": "Marla Airport",
    "city": "South Australia",
    "country": "AU",
    "lat": -27.33329964,
    "lon": 133.6269989
  },
  "MRL": {
    "name": "Miners Lake Airport",
    "city": "Queensland",
    "country": "AU",
    "lat": 46.3834,
    "lon": -82.63315
  },
  "ONR": {
    "name": "Monkira Airport",
    "city": "Queensland",
    "country": "AU",
    "lat": -24.81669998,
    "lon": 140.5330048
  },
  "ONG": {
    "name": "Mornington Island Airport",
    "city": "Queensland",
    "country": "AU",
    "lat": -16.66250038,
    "lon": 139.1779938
  },
  "MRG": {
    "name": "Mareeba Airfield",
    "city": "Queensland",
    "country": "AU",
    "lat": -17.06920052,
    "lon": 145.4190063
  },
  "WYN": {
    "name": "Wyndham Airport",
    "city": "Western Australia",
    "country": "AU",
    "lat": -15.51140022,
    "lon": 128.1529999
  },
  "MQZ": {
    "name": "Margaret River Airport",
    "city": "Western Australia",
    "country": "AU",
    "lat": -33.93059921,
    "lon": 115.0999985
  },
  "WYA": {
    "name": "Whyalla Airport",
    "city": "South Australia",
    "country": "AU",
    "lat": -33.05889893,
    "lon": 137.5140076
  },
  "DNM": {
    "name": "Denham Airport",
    "city": "Western Australia",
    "country": "AU",
    "lat": -25.888159,
    "lon": 113.57695
  },
  "KQR": {
    "name": "Karara Airport",
    "city": "Western Australia",
    "country": "AU",
    "lat": -28.206451,
    "lon": 151.570214
  },
  "KRA": {
    "name": "Kerang Airport",
    "city": "Victoria",
    "country": "AU",
    "lat": -35.75139999,
    "lon": 143.9389954
  },
  "WWY": {
    "name": "West Wyalong Airport",
    "city": "New South Wales",
    "country": "AU",
    "lat": -33.93719864,
    "lon": 147.1909943
  },
  "CKW": {
    "name": "Graeme Rowley Aerodrome",
    "city": "Western Australia",
    "country": "AU",
    "lat": -22.3543,
    "lon": 119.6426
  },
  "DNQ": {
    "name": "Deniliquin Airport",
    "city": "New South Wales",
    "country": "AU",
    "lat": -35.55939865,
    "lon": 144.9459991
  },
  "KRB": {
    "name": "Karumba Airport",
    "city": "Queensland",
    "country": "AU",
    "lat": -17.45669937,
    "lon": 140.8300018
  },
  "WWI": {
    "name": "Woodie Woodie Airport",
    "city": "Western Australia",
    "country": "AU",
    "lat": -21.66279984,
    "lon": 121.2340012
  },
  "MQL": {
    "name": "Mildura Airport",
    "city": "Victoria",
    "country": "AU",
    "lat": -34.22919846,
    "lon": 142.0859985
  },
  "KRD": {
    "name": "Kurundi Airport",
    "city": "Northern Territory",
    "country": "AU",
    "lat": -20.51,
    "lon": 134.6706
  },
  "BNE": {
    "name": "Brisbane Airport",
    "city": "Queensland",
    "country": "AU",
    "lat": -27.38419914,
    "lon": 153.1170044
  },
  "OLP": {
    "name": "Olympic Dam Airport",
    "city": "South Australia",
    "country": "AU",
    "lat": -30.48500061,
    "lon": 136.8769989
  },
  "MFP": {
    "name": "Manners Creek Airport",
    "city": "Northern Territory",
    "country": "AU",
    "lat": -22.10000038,
    "lon": 137.9830017
  },
  "MQE": {
    "name": "Marqua Airport",
    "city": "Northern Territory",
    "country": "AU",
    "lat": -22.80579948,
    "lon": 137.2510071
  },
  "OKY": {
    "name": "Oakey Army Aviation Centre",
    "city": "Queensland",
    "country": "AU",
    "lat": -27.41139984,
    "lon": 151.7350006
  },
  "BNK": {
    "name": "Ballina Byron Gateway Airport",
    "city": "New South Wales",
    "country": "AU",
    "lat": -28.83390045,
    "lon": 153.5619965
  },
  "CLH": {
    "name": "Coolah Airport",
    "city": "New South Wales",
    "country": "AU",
    "lat": -31.77330017,
    "lon": 149.6100006
  },
  "OKR": {
    "name": "Yorke Island Airport",
    "city": "Queensland",
    "country": "AU",
    "lat": -9.752801,
    "lon": 143.405673
  },
  "KSV": {
    "name": "Springvale Airport",
    "city": "Queensland",
    "country": "AU",
    "lat": -23.54999924,
    "lon": 140.6999969
  },
  "OKB": {
    "name": "Orchid Beach Airport",
    "city": "Queensland",
    "country": "AU",
    "lat": -24.95940018,
    "lon": 153.3150024
  },
  "WUN": {
    "name": "Wiluna Airport",
    "city": "Western Australia",
    "country": "AU",
    "lat": -26.62919998,
    "lon": 120.2210007
  },
  "WUI": {
    "name": "Murrin Murrin Airport",
    "city": "Western Australia",
    "country": "AU",
    "lat": -28.705299,
    "lon": 121.89099
  },
  "KTA": {
    "name": "Karratha Airport",
    "city": "Western Australia",
    "country": "AU",
    "lat": -20.71220016,
    "lon": 116.7730026
  },
  "MQA": {
    "name": "Mandora Station Airport",
    "city": "Western Australia",
    "country": "AU",
    "lat": -19.73830032,
    "lon": 120.8379974
  },
  "MGT": {
    "name": "Milingimbi Airport",
    "city": "Northern Territory",
    "country": "AU",
    "lat": -12.09440041,
    "lon": 134.8939972
  },
  "KTR": {
    "name": "RAAF Base Tindal",
    "city": "Northern Territory",
    "country": "AU",
    "lat": -14.52110004,
    "lon": 132.378006
  },
  "ODR": {
    "name": "Ord River Airport",
    "city": "Western Australia",
    "country": "AU",
    "lat": -17.34079933,
    "lon": 128.9120026
  },
  "ALH": {
    "name": "Albany Airport",
    "city": "Western Australia",
    "country": "AU",
    "lat": -34.94329834,
    "lon": 117.8089981
  },
  "WUD": {
    "name": "Wudinna Airport",
    "city": "South Australia",
    "country": "AU",
    "lat": -33.04330063,
    "lon": 135.4470062
  },
  "LYT": {
    "name": "Lady Elliot Island Airport",
    "city": "Queensland",
    "country": "AU",
    "lat": -24.1129,
    "lon": 152.7156
  },
  "ODL": {
    "name": "Cordillo Downs Airport",
    "city": "South Australia",
    "country": "AU",
    "lat": -26.74530029,
    "lon": 140.6380005
  },
  "KUG": {
    "name": "Kubin Airport",
    "city": "Queensland",
    "country": "AU",
    "lat": -10.22500038,
    "lon": 142.2180023
  },
  "ODD": {
    "name": "Oodnadatta Airport",
    "city": "South Australia",
    "country": "AU",
    "lat": -27.56170082,
    "lon": 135.4470062
  },
  "DOX": {
    "name": "Dongara Airport",
    "city": "Western Australia",
    "country": "AU",
    "lat": -29.298128,
    "lon": 114.927334
  },
  "OCM": {
    "name": "Boolgeeda Airport",
    "city": "Western Australia",
    "country": "AU",
    "lat": -22.54,
    "lon": 117.275
  },
  "OBA": {
    "name": "Oban Airport",
    "city": "Queensland",
    "country": "AU",
    "lat": 56.4657,
    "lon": -5.3977
  },
  "KWM": {
    "name": "Kowanyama Airport",
    "city": "Queensland",
    "country": "AU",
    "lat": -15.48560047,
    "lon": 141.7510071
  },
  "CMA": {
    "name": "Cunnamulla Airport",
    "city": "Queensland",
    "country": "AU",
    "lat": -28.03000069,
    "lon": 145.621994
  },
  "OAG": {
    "name": "Orange Airport",
    "city": "New South Wales",
    "country": "AU",
    "lat": -33.38169861,
    "lon": 149.1329956
  },
  "WTB": {
    "name": "Toowoomba Wellcamp Airport",
    "city": "Queensland",
    "country": "AU",
    "lat": -27.558332,
    "lon": 151.793335
  },
  "MOV": {
    "name": "Moranbah Airport",
    "city": "Queensland",
    "country": "AU",
    "lat": -22.05780029,
    "lon": 148.0769959
  },
  "CMD": {
    "name": "Cootamundra Airport",
    "city": "New South Wales",
    "country": "AU",
    "lat": -34.62390137,
    "lon": 148.0279999
  },
  "DPO": {
    "name": "Devonport Airport",
    "city": "Tasmania",
    "country": "AU",
    "lat": -41.16970062,
    "lon": 146.4299927
  },
  "LZR": {
    "name": "Lizard Island Airport",
    "city": "Queensland",
    "country": "AU",
    "lat": -14.673273,
    "lon": 145.454571
  },
  "MOO": {
    "name": "Moomba Airport",
    "city": "South Australia",
    "country": "AU",
    "lat": -28.09939957,
    "lon": 140.1970062
  },
  "NYN": {
    "name": "Nyngan Airport",
    "city": "New South Wales",
    "country": "AU",
    "lat": -31.55109978,
    "lon": 147.2030029
  },
  "WSY": {
    "name": "Whitsunday Airport",
    "city": "Queensland",
    "country": "AU",
    "lat": -20.27611,
    "lon": 148.755
  },
  "KYF": {
    "name": "Yeelirrie Airport",
    "city": "Western Australia",
    "country": "AU",
    "lat": -27.27706004,
    "lon": 120.0956726
  },
  "KYI": {
    "name": "Yalata Airport",
    "city": "South Australia",
    "country": "AU",
    "lat": -31.47060013,
    "lon": 131.8249969
  },
  "DRB": {
    "name": "Derby Airport",
    "city": "Western Australia",
    "country": "AU",
    "lat": -17.37000084,
    "lon": 123.6610031
  },
  "DRD": {
    "name": "Dorunda Airport",
    "city": "Queensland",
    "country": "AU",
    "lat": -16.5537,
    "lon": 141.8238
  },
  "BOX": {
    "name": "Borroloola Airport",
    "city": "Northern Territory",
    "country": "AU",
    "lat": -16.07530022,
    "lon": 136.302002
  },
  "CML": {
    "name": "Camooweal Airport",
    "city": "Queensland",
    "country": "AU",
    "lat": -19.9116993,
    "lon": 138.125
  },
  "WRW": {
    "name": "Warrawagine Airport",
    "city": "Western Australia",
    "country": "AU",
    "lat": -20.84420013,
    "lon": 120.7020035
  },
  "WRN": {
    "name": "Windarling Airport",
    "city": "Western Australia",
    "country": "AU",
    "lat": -30.031667,
    "lon": 119.39
  },
  "NUR": {
    "name": "Nullabor Motel Airport",
    "city": "South Australia",
    "country": "AU",
    "lat": -31.44169998,
    "lon": 130.9019928
  },
  "NUB": {
    "name": "Numbulwar Airport",
    "city": "Northern Territory",
    "country": "AU",
    "lat": -14.27169991,
    "lon": 135.7169952
  },
  "CMQ": {
    "name": "Clermont Airport",
    "city": "Queensland",
    "country": "AU",
    "lat": -22.7730999,
    "lon": 147.6210022
  },
  "AMT": {
    "name": "Amata Airport",
    "city": "South Australia",
    "country": "AU",
    "lat": -26.10829926,
    "lon": 131.2070007
  },
  "NTN": {
    "name": "Normanton Airport",
    "city": "Queensland",
    "country": "AU",
    "lat": -17.68409,
    "lon": 141.069664
  },
  "NTL": {
    "name": "Newcastle Airport / RAAF Base Williamtown",
    "city": "New South Wales",
    "country": "AU",
    "lat": -32.79499817,
    "lon": 151.8339996
  },
  "AMX": {
    "name": "Ammaroo Airport",
    "city": "Northern Territory",
    "country": "AU",
    "lat": -21.73830032,
    "lon": 135.2420044
  },
  "DRN": {
    "name": "Dirranbandi Airport",
    "city": "Queensland",
    "country": "AU",
    "lat": -28.5916996,
    "lon": 148.2169952
  },
  "MNW": {
    "name": "MacDonald Downs Airport",
    "city": "Northern Territory",
    "country": "AU",
    "lat": -22.44400024,
    "lon": 135.1990051
  },
  "MNV": {
    "name": "Mount Valley Airport",
    "city": "Northern Territory",
    "country": "AU",
    "lat": -14.11666,
    "lon": 133.83333
  },
  "MNQ": {
    "name": "Monto Airport",
    "city": "Queensland",
    "country": "AU",
    "lat": -24.88579941,
    "lon": 151.1000061
  },
  "NSV": {
    "name": "Noosa Airport",
    "city": "Queensland",
    "country": "AU",
    "lat": -26.42329979,
    "lon": 153.0630035
  },
  "DRR": {
    "name": "Durrie Airport",
    "city": "Queensland",
    "country": "AU",
    "lat": -25.68499947,
    "lon": 140.2279968
  },
  "NSO": {
    "name": "Scone Airport",
    "city": "New South Wales",
    "country": "AU",
    "lat": -32.03720093,
    "lon": 150.8320007
  },
  "WPK": {
    "name": "Wrotham Park Airport",
    "city": "Queensland",
    "country": "AU",
    "lat": -16.6583004,
    "lon": 144.0019989
  },
  "NSM": {
    "name": "Norseman Airport",
    "city": "Western Australia",
    "country": "AU",
    "lat": -32.20999908,
    "lon": 121.7549973
  },
  "NRY": {
    "name": "Newry Airport",
    "city": "Northern Territory",
    "country": "AU",
    "lat": -16.0442,
    "lon": 129.2638
  },
  "DRW": {
    "name": "Darwin International Airport",
    "city": "Northern Territory",
    "country": "AU",
    "lat": -12.41469955,
    "lon": 130.8769989
  },
  "CNB": {
    "name": "Coonamble Airport",
    "city": "New South Wales",
    "country": "AU",
    "lat": -30.98329926,
    "lon": 148.3760071
  },
  "MNG": {
    "name": "Maningrida Airport",
    "city": "Northern Territory",
    "country": "AU",
    "lat": -12.05609989,
    "lon": 134.2339935
  },
  "BQB": {
    "name": "Busselton Regional Airport",
    "city": "Western Australia",
    "country": "AU",
    "lat": -33.68842316,
    "lon": 115.4015961
  },
  "CNC": {
    "name": "Coconut Island Airport",
    "city": "Queensland",
    "country": "AU",
    "lat": -10.05000019,
    "lon": 143.0700073
  },
  "DRY": {
    "name": "Drysdale River Airport",
    "city": "Western Australia",
    "country": "AU",
    "lat": -15.7135704,
    "lon": 126.3810968
  },
  "LBH": {
    "name": "Palm Beach Water Airport",
    "city": "New South Wales",
    "country": "AU",
    "lat": -33.5871,
    "lon": 151.3234
  },
  "MNE": {
    "name": "Mungeranie Airport",
    "city": "South Australia",
    "country": "AU",
    "lat": -28.00919914,
    "lon": 138.6569977
  },
  "NRG": {
    "name": "Narrogin Airport",
    "city": "Western Australia",
    "country": "AU",
    "lat": -32.93000031,
    "lon": 117.0800018
  },
  "NRA": {
    "name": "Narrandera Airport",
    "city": "New South Wales",
    "country": "AU",
    "lat": -34.70220184,
    "lon": 146.5119934
  },
  "BQL": {
    "name": "Boulia Airport",
    "city": "Queensland",
    "country": "AU",
    "lat": -22.91329956,
    "lon": 139.8999939
  },
  "ANZ": {
    "name": "Angus Downs Airport",
    "city": "Northern Territory",
    "country": "AU",
    "lat": -25.0325,
    "lon": 132.2748
  },
  "LCN": {
    "name": "Balcanoona Airport",
    "city": "South Australia",
    "country": "AU",
    "lat": -30.53499985,
    "lon": 139.3370056
  },
  "WON": {
    "name": "Wondoola Airport",
    "city": "Queensland",
    "country": "AU",
    "lat": -18.57500076,
    "lon": 140.8919983
  },
  "CNJ": {
    "name": "Cloncurry Airport",
    "city": "Queensland",
    "country": "AU",
    "lat": -20.66860008,
    "lon": 140.5039978
  },
  "WOL": {
    "name": "Illawarra Regional Airport",
    "city": "New South Wales",
    "country": "AU",
    "lat": -34.56110001,
    "lon": 150.7890015
  },
  "MBB": {
    "name": "Marble Bar Airport",
    "city": "Western Australia",
    "country": "AU",
    "lat": -21.16329956,
    "lon": 119.8330002
  },
  "NPP": {
    "name": "Napperby Airport",
    "city": "Northern Territory",
    "country": "AU",
    "lat": -22.5312,
    "lon": 132.7632
  },
  "WNR": {
    "name": "Windorah Airport",
    "city": "Queensland",
    "country": "AU",
    "lat": -25.41309929,
    "lon": 142.6670074
  },
  "LDC": {
    "name": "Lindeman Island Airport",
    "city": "Queensland",
    "country": "AU",
    "lat": -20.45359993,
    "lon": 149.0399933
  },
  "BQW": {
    "name": "Balgo Hill Airport",
    "city": "Western Australia",
    "country": "AU",
    "lat": -20.1483,
    "lon": 127.973
  },
  "LDH": {
    "name": "Lord Howe Island Airport",
    "city": "New South Wales",
    "country": "AU",
    "lat": -31.53829956,
    "lon": 159.0769959
  },
  "NOA": {
    "name": "NAS Nowra",
    "city": "New South Wales",
    "country": "AU",
    "lat": -34.94889832,
    "lon": 150.5370026
  },
  "MBF": {
    "name": "Porepunkah Airfield",
    "city": "Victoria",
    "country": "AU",
    "lat": -36.7187,
    "lon": 146.8898
  },
  "WND": {
    "name": "Windarra Airport",
    "city": "Western Australia",
    "country": "AU",
    "lat": -28.47500038,
    "lon": 122.2419968
  },
  "CNS": {
    "name": "Cairns Airport",
    "city": "Queensland",
    "country": "AU",
    "lat": -16.88579941,
    "lon": 145.7550049
  },
  "MBH": {
    "name": "Maryborough Airport",
    "city": "Queensland",
    "country": "AU",
    "lat": -25.5133,
    "lon": 152.714996
  },
  "MMM": {
    "name": "Middlemount Airport",
    "city": "Queensland",
    "country": "AU",
    "lat": -22.80249977,
    "lon": 148.7050018
  },
  "LDW": {
    "name": "Lansdowne Airport",
    "city": "Western Australia",
    "country": "AU",
    "lat": -17.6128,
    "lon": 126.743
  },
  "BRJ": {
    "name": "Bright Airport",
    "city": "Victoria",
    "country": "AU",
    "lat": 18.948673,
    "lon": 72.828673
  },
  "BRK": {
    "name": "Bourke Airport",
    "city": "New South Wales",
    "country": "AU",
    "lat": -30.03919983,
    "lon": 145.9519958
  },
  "WME": {
    "name": "Mount Keith Airport",
    "city": "Western Australia",
    "country": "AU",
    "lat": -27.28639984,
    "lon": 120.5550003
  },
  "MBN": {
    "name": "Mount Barnett Airport",
    "city": "Western Australia",
    "country": "AU",
    "lat": -16.6573,
    "lon": 125.961
  },
  "LEA": {
    "name": "RAAF Learmonth (Learmonth Airport)",
    "city": "Western Australia",
    "country": "AU",
    "lat": -22.23559952,
    "lon": 114.0889969
  },
  "MMG": {
    "name": "Mount Magnet Airport",
    "city": "Western Australia",
    "country": "AU",
    "lat": -28.11610031,
    "lon": 117.8420029
  },
  "LEL": {
    "name": "Lake Evella Airport",
    "city": "Northern Territory",
    "country": "AU",
    "lat": -12.49890041,
    "lon": 135.8059998
  },
  "WMB": {
    "name": "Warrnambool Airport",
    "city": "Victoria",
    "country": "AU",
    "lat": -38.29529953,
    "lon": 142.4470062
  },
  "WLP": {
    "name": "West Angelas Airport",
    "city": "Western Australia",
    "country": "AU",
    "lat": -23.13555556,
    "lon": 118.7072222
  },
  "COB": {
    "name": "Coolibah Airport",
    "city": "Northern Territory",
    "country": "AU",
    "lat": -15.54829979,
    "lon": 130.9620056
  },
  "NMR": {
    "name": "Nappa Merrie Airport",
    "city": "Queensland",
    "country": "AU",
    "lat": -27.55830002,
    "lon": 141.1329956
  },
  "BRT": {
    "name": "Bathurst Island Airport",
    "city": "Northern Territory",
    "country": "AU",
    "lat": -11.76920033,
    "lon": 130.6199951
  },
  "WLO": {
    "name": "Waterloo Airport",
    "city": "Northern Territory",
    "country": "AU",
    "lat": -16.62999916,
    "lon": 129.3200073
  },
  "LER": {
    "name": "Leinster Airport",
    "city": "Western Australia",
    "country": "AU",
    "lat": -27.84329987,
    "lon": 120.7030029
  },
  "MLV": {
    "name": "Merluna Airport",
    "city": "Queensland",
    "country": "AU",
    "lat": -13.0649,
    "lon": 142.4536
  },
  "WLL": {
    "name": "Wollogorang Airport",
    "city": "Northern Territory",
    "country": "AU",
    "lat": -17.2199,
    "lon": 137.93453
  },
  "WLE": {
    "name": "Miles Airport",
    "city": "Queensland",
    "country": "AU",
    "lat": -26.80830002,
    "lon": 150.1750031
  },
  "WLC": {
    "name": "Walcha Airport",
    "city": "New South Wales",
    "country": "AU",
    "lat": -31,
    "lon": 151.5670013
  },
  "COJ": {
    "name": "Coonabarabran Airport",
    "city": "New South Wales",
    "country": "AU",
    "lat": -31.33250046,
    "lon": 149.2669983
  },
  "NMP": {
    "name": "New Moon Airport",
    "city": "Queensland",
    "country": "AU",
    "lat": -19.2,
    "lon": 145.773
  },
  "MBW": {
    "name": "Moorabbin Airport",
    "city": "Victoria",
    "country": "AU",
    "lat": -37.97579956,
    "lon": 145.102005
  },
  "WLA": {
    "name": "Wallal Airport",
    "city": "Western Australia",
    "country": "AU",
    "lat": -19.77359962,
    "lon": 120.6490021
  },
  "NLS": {
    "name": "Nicholson Airport",
    "city": "Western Australia",
    "country": "AU",
    "lat": -18.04999924,
    "lon": 128.8999939
  },
  "MLR": {
    "name": "Millicent Airport",
    "city": "South Australia",
    "country": "AU",
    "lat": -37.58359909,
    "lon": 140.3659973
  },
  "NLL": {
    "name": "Nullagine Airport",
    "city": "Western Australia",
    "country": "AU",
    "lat": -21.91329956,
    "lon": 120.197998
  },
  "LFP": {
    "name": "Lakefield Airport",
    "city": "Queensland",
    "country": "AU",
    "lat": -14.9207,
    "lon": 144.203
  },
  "WKB": {
    "name": "Warracknabeal Airport",
    "city": "Victoria",
    "country": "AU",
    "lat": -36.32109833,
    "lon": 142.4190063
  },
  "WIT": {
    "name": "Wittenoom Airport",
    "city": "Western Australia",
    "country": "AU",
    "lat": -22.21829987,
    "lon": 118.3479996
  },
  "BSJ": {
    "name": "Bairnsdale Airport",
    "city": "Victoria",
    "country": "AU",
    "lat": -37.88750076,
    "lon": 147.5679932
  },
  "WIO": {
    "name": "Wilcannia Airport",
    "city": "New South Wales",
    "country": "AU",
    "lat": -31.52639961,
    "lon": 143.375
  },
  "WIN": {
    "name": "Winton Airport",
    "city": "Queensland",
    "country": "AU",
    "lat": -22.36359978,
    "lon": 143.0859985
  },
  "NLF": {
    "name": "Darnley Island Airport",
    "city": "Queensland",
    "country": "AU",
    "lat": -9.583330154,
    "lon": 143.7669983
  },
  "LGE": {
    "name": "Lake Gregory Airport",
    "city": "Western Australia",
    "country": "AU",
    "lat": -20.1089,
    "lon": 127.619
  },
  "MKY": {
    "name": "Mackay Airport",
    "city": "Queensland",
    "country": "AU",
    "lat": -21.17169952,
    "lon": 149.1799927
  },
  "COY": {
    "name": "Coolawanyah Station Airport",
    "city": "Western Australia",
    "country": "AU",
    "lat": -21.7946,
    "lon": 117.755
  },
  "NKB": {
    "name": "Noonkanbah Airport",
    "city": "Western Australia",
    "country": "AU",
    "lat": -18.49469948,
    "lon": 124.8519974
  },
  "LGH": {
    "name": "Leigh Creek Airport",
    "city": "South Australia",
    "country": "AU",
    "lat": -30.59830093,
    "lon": 138.4259949
  },
  "ARM": {
    "name": "Armidale Airport",
    "city": "New South Wales",
    "country": "AU",
    "lat": -30.52809906,
    "lon": 151.6170044
  },
  "MKV": {
    "name": "Mount Cavenagh Airport",
    "city": "Northern Territory",
    "country": "AU",
    "lat": -25.9666996,
    "lon": 133.1999969
  },
  "NIF": {
    "name": "Nifty Airport",
    "city": "Western Australia",
    "country": "AU",
    "lat": -21.67169952,
    "lon": 121.586998
  },
  "CPD": {
    "name": "Coober Pedy Airport",
    "city": "South Australia",
    "country": "AU",
    "lat": -29.04000092,
    "lon": 134.720993
  },
  "LHG": {
    "name": "Lightning Ridge Airport",
    "city": "New South Wales",
    "country": "AU",
    "lat": -29.45669937,
    "lon": 147.9839935
  },
  "LIB": {
    "name": "Limbunya Airport",
    "city": "Northern Territory",
    "country": "AU",
    "lat": -17.23559952,
    "lon": 129.8820038
  },
  "NGA": {
    "name": "Young Airport",
    "city": "New South Wales",
    "country": "AU",
    "lat": -34.25559998,
    "lon": 148.2480011
  },
  "WHL": {
    "name": "Welshpool Airport",
    "city": "Victoria",
    "country": "AU",
    "lat": -38.682382,
    "lon": 146.445331
  },
  "WGT": {
    "name": "Wangaratta Airport",
    "city": "Victoria",
    "country": "AU",
    "lat": -36.41579819,
    "lon": 146.3070068
  },
  "ARY": {
    "name": "Ararat Airport",
    "city": "Victoria",
    "country": "AU",
    "lat": -37.30939865,
    "lon": 142.9889984
  },
  "NDS": {
    "name": "Sandstone Airport",
    "city": "Western Australia",
    "country": "AU",
    "lat": -27.97999954,
    "lon": 119.2969971
  },
  "DVP": {
    "name": "Davenport Downs Airport",
    "city": "Queensland",
    "country": "AU",
    "lat": -24.14999962,
    "lon": 141.1080017
  },
  "BTD": {
    "name": "Brunette Downs Airport",
    "city": "Northern Territory",
    "country": "AU",
    "lat": -18.63999939,
    "lon": 135.9380035
  },
  "DVR": {
    "name": "Daly River Airport",
    "city": "Northern Territory",
    "country": "AU",
    "lat": -13.7498064,
    "lon": 130.6938782
  },
  "MKR": {
    "name": "Meekatharra Airport",
    "city": "Western Australia",
    "country": "AU",
    "lat": -26.61170006,
    "lon": 118.5479965
  },
  "LKD": {
    "name": "Lakeland Downs Airport",
    "city": "Queensland",
    "country": "AU",
    "lat": -15.83329964,
    "lon": 144.8500061
  },
  "WGE": {
    "name": "Walgett Airport",
    "city": "New South Wales",
    "country": "AU",
    "lat": -30.03280067,
    "lon": 148.1260071
  },
  "LLG": {
    "name": "Chillagoe Airport",
    "city": "Queensland",
    "country": "AU",
    "lat": -17.14279938,
    "lon": 144.529007
  },
  "WGA": {
    "name": "Wagga Wagga Airport",
    "city": "New South Wales",
    "country": "AU",
    "lat": -35.16529846,
    "lon": 147.4660034
  },
  "WEW": {
    "name": "Wee Waa Airport",
    "city": "New South Wales",
    "country": "AU",
    "lat": -30.25830078,
    "lon": 149.4080048
  },
  "WEI": {
    "name": "Weipa Airport",
    "city": "Queensland",
    "country": "AU",
    "lat": -12.67860031,
    "lon": 141.9250031
  },
  "DXD": {
    "name": "Dixie Airport",
    "city": "Queensland",
    "country": "AU",
    "lat": -15.11749443,
    "lon": 143.3160496
  },
  "LLL": {
    "name": "Lissadell Airport",
    "city": "Western Australia",
    "country": "AU",
    "lat": -16.661,
    "lon": 128.594
  },
  "CQP": {
    "name": "Cape Flattery Airport",
    "city": "Queensland",
    "country": "AU",
    "lat": -14.970832,
    "lon": 145.311667
  },
  "ASP": {
    "name": "Alice Springs Airport",
    "city": "Northern Territory",
    "country": "AU",
    "lat": -23.80669975,
    "lon": 133.9019928
  },
  "LLP": {
    "name": "Linda Downs Airport",
    "city": "Queensland",
    "country": "AU",
    "lat": -17.818889,
    "lon": 25.818611
  },
  "MCV": {
    "name": "McArthur River Mine Airport",
    "city": "Northern Territory",
    "country": "AU",
    "lat": -16.44249916,
    "lon": 136.0839996
  },
  "DYA": {
    "name": "Dysart Airport",
    "city": "Queensland",
    "country": "AU",
    "lat": -22.62220001,
    "lon": 148.3639984
  },
  "NBH": {
    "name": "Nambucca Heads Airport",
    "city": "New South Wales",
    "country": "AU",
    "lat": -30.64999962,
    "lon": 153
  },
  "MCY": {
    "name": "Sunshine Coast Airport",
    "city": "Queensland",
    "country": "AU",
    "lat": -26.6033,
    "lon": 153.091003
  },
  "CRB": {
    "name": "Collarenebri Airport",
    "city": "New South Wales",
    "country": "AU",
    "lat": -29.52169991,
    "lon": 148.5820007
  },
  "YUE": {
    "name": "Yuendumu Airport",
    "city": "Northern Territory",
    "country": "AU",
    "lat": -22.25419998,
    "lon": 131.7819977
  },
  "LNH": {
    "name": "Lake Nash Airport",
    "city": "Northern Territory",
    "country": "AU",
    "lat": -20.9807,
    "lon": 137.9178
  },
  "DYM": {
    "name": "Diamantina Lakes Airport",
    "city": "Queensland",
    "country": "AU",
    "lat": -23.76169968,
    "lon": 141.1450043
  },
  "WDI": {
    "name": "Wondai Airport",
    "city": "Queensland",
    "country": "AU",
    "lat": -26.2833004,
    "lon": 151.8580017
  },
  "LNO": {
    "name": "Leonora Airport",
    "city": "Western Australia",
    "country": "AU",
    "lat": -28.87809944,
    "lon": 121.3150024
  },
  "BTX": {
    "name": "Betoota Airport",
    "city": "Queensland",
    "country": "AU",
    "lat": -25.64170074,
    "lon": 140.7830048
  },
  "CRH": {
    "name": "Cherrabah Airport",
    "city": "Queensland",
    "country": "AU",
    "lat": -28.4301,
    "lon": 152.08895
  },
  "NAC": {
    "name": "Naracoorte Airport",
    "city": "South Australia",
    "country": "AU",
    "lat": -36.98529816,
    "lon": 140.7250061
  },
  "CRJ": {
    "name": "Coorabie Airport",
    "city": "South Australia",
    "country": "AU",
    "lat": -31.89439964,
    "lon": 132.2960052
  },
  "BUC": {
    "name": "Burketown Airport",
    "city": "Queensland",
    "country": "AU",
    "lat": -17.74860001,
    "lon": 139.5339966
  },
  "DYW": {
    "name": "Daly Waters Airport",
    "city": "Northern Territory",
    "country": "AU",
    "lat": -16.26469507,
    "lon": 133.383379
  },
  "MJP": {
    "name": "Manjimup Airport",
    "city": "Western Australia",
    "country": "AU",
    "lat": -34.26530075,
    "lon": 116.1399994
  },
  "NAA": {
    "name": "Narrabri Airport",
    "city": "New South Wales",
    "country": "AU",
    "lat": -30.31920052,
    "lon": 149.8269959
  },
  "LOA": {
    "name": "Lorraine Airport",
    "city": "Queensland",
    "country": "AU",
    "lat": -18.99329948,
    "lon": 139.9069977
  },
  "WAZ": {
    "name": "Warwick Airport",
    "city": "Queensland",
    "country": "AU",
    "lat": -28.14940071,
    "lon": 151.9429932
  },
  "WAV": {
    "name": "Wave Hill Airport",
    "city": "Northern Territory",
    "country": "AU",
    "lat": -17.3932991,
    "lon": 131.1179962
  },
  "LOC": {
    "name": "Lock Airport",
    "city": "South Australia",
    "country": "AU",
    "lat": -33.5442009,
    "lon": 135.6929932
  },
  "WAU": {
    "name": "Wauchope Airport",
    "city": "New South Wales",
    "country": "AU",
    "lat": -20.640614,
    "lon": 134.215276
  },
  "MJK": {
    "name": "Shark Bay Airport",
    "city": "Western Australia",
    "country": "AU",
    "lat": -25.89389992,
    "lon": 113.5770035
  },
  "MGB": {
    "name": "Mount Gambier Airport",
    "city": "South Australia",
    "country": "AU",
    "lat": -37.74560165,
    "lon": 140.7850037
  },
  "MIZ": {
    "name": "Mainoru Airport",
    "city": "Northern Territory",
    "country": "AU",
    "lat": -14.0533,
    "lon": 134.0942
  },
  "MYO": {
    "name": "Myroodah Airport",
    "city": "Western Australia",
    "country": "AU",
    "lat": -18.12470055,
    "lon": 124.2720032
  },
  "MIY": {
    "name": "Mittiebah Airport",
    "city": "Northern Territory",
    "country": "AU",
    "lat": -18.8093,
    "lon": 137.0815
  },
  "WAN": {
    "name": "Waverney Airport",
    "city": "Queensland",
    "country": "AU",
    "lat": -25.3563,
    "lon": 141.9254
  },
  "MYI": {
    "name": "Murray Island Airport",
    "city": "Queensland",
    "country": "AU",
    "lat": -9.916669846,
    "lon": 144.0549927
  },
  "MYA": {
    "name": "Moruya Airport",
    "city": "New South Wales",
    "country": "AU",
    "lat": -35.89780045,
    "lon": 150.1439972
  },
  "AUD": {
    "name": "Augustus Downs Airport",
    "city": "Queensland",
    "country": "AU",
    "lat": -18.51499939,
    "lon": 139.878006
  },
  "CRY": {
    "name": "Carlton Hill Airport",
    "city": "Western Australia",
    "country": "AU",
    "lat": -15.50189972,
    "lon": 128.5339966
  },
  "ECH": {
    "name": "Echuca Airport",
    "city": "Victoria",
    "country": "AU",
    "lat": -36.15719986,
    "lon": 144.7619934
  },
  "EDD": {
    "name": "Erldunda Airport",
    "city": "Northern Territory",
    "country": "AU",
    "lat": -25.2057991,
    "lon": 133.2539978
  },
  "MEB": {
    "name": "Essendon Airport",
    "city": "Victoria",
    "country": "AU",
    "lat": -37.7281,
    "lon": 144.901993
  },
  "EDR": {
    "name": "Edward River Airport",
    "city": "Queensland",
    "country": "AU",
    "lat": -14.896451,
    "lon": 141.60908
  },
  "VNR": {
    "name": "Vanrook Airport",
    "city": "Queensland",
    "country": "AU",
    "lat": -16.9633007,
    "lon": 141.9499969
  },
  "MIN": {
    "name": "Minnipa Airport",
    "city": "South Australia",
    "country": "AU",
    "lat": -32.84329987,
    "lon": 135.1450043
  },
  "MIM": {
    "name": "Merimbula Airport",
    "city": "New South Wales",
    "country": "AU",
    "lat": -36.90859985,
    "lon": 149.901001
  },
  "BUY": {
    "name": "Bunbury Airport",
    "city": "Western Australia",
    "country": "AU",
    "lat": -33.37829971,
    "lon": 115.677002
  },
  "CSD": {
    "name": "Cresswell Downs Airport",
    "city": "Northern Territory",
    "country": "AU",
    "lat": -17.94799995,
    "lon": 135.9160004
  },
  "EIH": {
    "name": "Einasleigh Airport",
    "city": "Queensland",
    "country": "AU",
    "lat": -18.50329971,
    "lon": 144.0939941
  },
  "AUU": {
    "name": "Aurukun Airport",
    "city": "Queensland",
    "country": "AU",
    "lat": -13.354067,
    "lon": 141.72065
  },
  "EKD": {
    "name": "Elkedra Airport",
    "city": "Northern Territory",
    "country": "AU",
    "lat": -21.17250061,
    "lon": 135.4440002
  },
  "ELC": {
    "name": "Elcho Island Airport",
    "city": "Northern Territory",
    "country": "AU",
    "lat": -12.01939964,
    "lon": 135.5709991
  },
  "MIH": {
    "name": "Mitchell Plateau Airport",
    "city": "Western Australia",
    "country": "AU",
    "lat": -14.79139996,
    "lon": 125.8239975
  },
  "MEL": {
    "name": "Melbourne Airport",
    "city": "Victoria",
    "country": "AU",
    "lat": -37.673302,
    "lon": 144.843002
  },
  "VCD": {
    "name": "Victoria River Downs Airport",
    "city": "Northern Territory",
    "country": "AU",
    "lat": -16.4021244,
    "lon": 131.0049744
  },
  "CSI": {
    "name": "Casino Airport",
    "city": "New South Wales",
    "country": "AU",
    "lat": -28.88279915,
    "lon": 153.0670013
  },
  "AVG": {
    "name": "Auvergne Airport",
    "city": "Northern Territory",
    "country": "AU",
    "lat": -15.69999981,
    "lon": 130
  },
  "EMD": {
    "name": "Emerald Airport",
    "city": "Queensland",
    "country": "AU",
    "lat": -23.56749916,
    "lon": 148.1790009
  },
  "UTD": {
    "name": "Nutwood Downs Airport",
    "city": "Northern Territory",
    "country": "AU",
    "lat": -15.8074,
    "lon": 134.1459
  },
  "BVI": {
    "name": "Birdsville Airport",
    "city": "Queensland",
    "country": "AU",
    "lat": -25.89749908,
    "lon": 139.3480072
  },
  "UTB": {
    "name": "Muttaburra Airport",
    "city": "Queensland",
    "country": "AU",
    "lat": -22.58329964,
    "lon": 144.5330048
  },
  "USL": {
    "name": "Useless Loop Airport",
    "city": "Western Australia",
    "country": "AU",
    "lat": -26.16670036,
    "lon": 113.4000015
  },
  "ENB": {
    "name": "Eneabba Airport",
    "city": "Western Australia",
    "country": "AU",
    "lat": -29.83250046,
    "lon": 115.2460022
  },
  "EPR": {
    "name": "Esperance Airport",
    "city": "Western Australia",
    "country": "AU",
    "lat": -33.684399,
    "lon": 121.822998
  },
  "AVV": {
    "name": "Avalon Airport",
    "city": "Victoria",
    "country": "AU",
    "lat": -38.039398,
    "lon": 144.468994
  },
  "RDA": {
    "name": "Rockhampton Downs Airport",
    "city": "Northern Territory",
    "country": "AU",
    "lat": -18.95330048,
    "lon": 135.201004
  },
  "ERB": {
    "name": "Pukatja Airport (Ernabella Airport)",
    "city": "South Australia",
    "country": "AU",
    "lat": -26.26329994,
    "lon": 132.1820068
  },
  "UMR": {
    "name": "RAAF Woomera Airfield",
    "city": "South Australia",
    "country": "AU",
    "lat": -31.14419937,
    "lon": 136.8170013
  },
  "MET": {
    "name": "Moreton Airport",
    "city": "Queensland",
    "country": "AU",
    "lat": -12.44419956,
    "lon": 142.6380005
  },
  "ERQ": {
    "name": "Elrose Airport",
    "city": "Queensland",
    "country": "AU",
    "lat": -20.9764,
    "lon": 141.0066
  },
  "BVW": {
    "name": "Batavia Downs Airport",
    "city": "Queensland",
    "country": "AU",
    "lat": -12.65919971,
    "lon": 142.6750031
  },
  "ULP": {
    "name": "Quilpie Airport",
    "city": "Queensland",
    "country": "AU",
    "lat": -26.61219978,
    "lon": 144.253006
  },
  "AWN": {
    "name": "Alton Downs Airport",
    "city": "South Australia",
    "country": "AU",
    "lat": -26.5333004,
    "lon": 139.2669983
  },
  "AWP": {
    "name": "Austral Downs Airport",
    "city": "Northern Territory",
    "country": "AU",
    "lat": -20.5,
    "lon": 137.75
  },
  "UIR": {
    "name": "Quirindi Airport",
    "city": "New South Wales",
    "country": "AU",
    "lat": -31.49060059,
    "lon": 150.5140076
  },
  "MHU": {
    "name": "Mount Hotham Airport",
    "city": "Victoria",
    "country": "AU",
    "lat": -37.04750061,
    "lon": 147.3339996
  },
  "AXC": {
    "name": "Aramac Airport",
    "city": "Queensland",
    "country": "AU",
    "lat": -22.9666996,
    "lon": 145.2420044
  },
  "BVZ": {
    "name": "Beverley Springs Airport",
    "city": "Western Australia",
    "country": "AU",
    "lat": -16.73329926,
    "lon": 125.4329987
  },
  "UEE": {
    "name": "Queenstown Airport",
    "city": "Tasmania",
    "country": "AU",
    "lat": -42.075001,
    "lon": 145.531998
  },
  "BWB": {
    "name": "Barrow Island Airport",
    "city": "Western Australia",
    "country": "AU",
    "lat": -20.86440086,
    "lon": 115.4059982
  },
  "UDA": {
    "name": "Undara Airport",
    "city": "Queensland",
    "country": "AU",
    "lat": -18.20000076,
    "lon": 144.6000061
  },
  "UBU": {
    "name": "Kalumburu Airport",
    "city": "Western Australia",
    "country": "AU",
    "lat": -14.28829956,
    "lon": 126.6320038
  },
  "ETD": {
    "name": "Etadunna Airport",
    "city": "South Australia",
    "country": "AU",
    "lat": -28.74080086,
    "lon": 138.5890045
  },
  "AXL": {
    "name": "Alexandria Airport",
    "city": "Northern Territory",
    "country": "AU",
    "lat": -19.06019974,
    "lon": 136.7100067
  },
  "UBB": {
    "name": "Mabuiag Island Airport",
    "city": "Queensland",
    "country": "AU",
    "lat": -9.949999809,
    "lon": 142.1829987
  },
  "MHO": {
    "name": "Mount House Airport",
    "city": "Western Australia",
    "country": "AU",
    "lat": -17.05500031,
    "lon": 125.7099991
  },
  "EUC": {
    "name": "Eucla Airport",
    "city": "Western Australia",
    "country": "AU",
    "lat": -31.70000076,
    "lon": 128.8829956
  },
  "EVD": {
    "name": "Eva Downs Airport",
    "city": "Northern Territory",
    "country": "AU",
    "lat": -18.00099945,
    "lon": 134.8630066
  },
  "CTL": {
    "name": "Charleville Airport",
    "city": "Queensland",
    "country": "AU",
    "lat": -26.41329956,
    "lon": 146.2619934
  },
  "EVH": {
    "name": "Evans Head Memorial Aerodrome",
    "city": "New South Wales",
    "country": "AU",
    "lat": -29.09329987,
    "lon": 153.4199982
  },
  "CTN": {
    "name": "Cooktown Airport",
    "city": "Queensland",
    "country": "AU",
    "lat": -15.44470024,
    "lon": 145.1840057
  },
  "TYP": {
    "name": "Tobermorey Airport",
    "city": "Northern Territory",
    "country": "AU",
    "lat": -22.25580025,
    "lon": 137.9530029
  },
  "TYG": {
    "name": "Thylungra Airport",
    "city": "Queensland",
    "country": "AU",
    "lat": -26.08329964,
    "lon": 143.4669952
  },
  "TYB": {
    "name": "Tibooburra Airport",
    "city": "New South Wales",
    "country": "AU",
    "lat": -29.4510994,
    "lon": 142.0579987
  },
  "BWQ": {
    "name": "Brewarrina Airport",
    "city": "New South Wales",
    "country": "AU",
    "lat": -29.97389984,
    "lon": 146.8170013
  },
  "AYD": {
    "name": "Alroy Downs Airport",
    "city": "Northern Territory",
    "country": "AU",
    "lat": -19.29080009,
    "lon": 136.0789948
  },
  "BWT": {
    "name": "Burnie Airport",
    "city": "Tasmania",
    "country": "AU",
    "lat": -40.99890137,
    "lon": 145.7310028
  },
  "BWU": {
    "name": "Bankstown Airport",
    "city": "New South Wales",
    "country": "AU",
    "lat": -33.92440033,
    "lon": 150.9880066
  },
  "AYL": {
    "name": "Anthony Lagoon Airport",
    "city": "Northern Territory",
    "country": "AU",
    "lat": -18.01807903,
    "lon": 135.5350685
  },
  "CTR": {
    "name": "Cattle Creek Airport",
    "city": "Northern Territory",
    "country": "AU",
    "lat": -17.60700035,
    "lon": 131.548996
  },
  "EXM": {
    "name": "Exmouth Airport",
    "city": "Western Australia",
    "country": "AU",
    "lat": -22.0333004,
    "lon": 114.0999985
  },
  "TXR": {
    "name": "Tanbar Airport",
    "city": "Queensland",
    "country": "AU",
    "lat": -25.8477993,
    "lon": 141.9279938
  },
  "AYQ": {
    "name": "Ayers Rock Airport",
    "city": "Northern Territory",
    "country": "AU",
    "lat": -25.1861,
    "lon": 130.975998
  },
  "AYR": {
    "name": "Ayr Airport",
    "city": "Queensland",
    "country": "AU",
    "lat": -19.58440018,
    "lon": 147.3289948
  },
  "TWP": {
    "name": "Torwood Airport",
    "city": "Queensland",
    "country": "AU",
    "lat": -17.36330032,
    "lon": 143.75
  },
  "TWN": {
    "name": "Tewantin Airport",
    "city": "Queensland",
    "country": "AU",
    "lat": -26.388,
    "lon": 153.028
  },
  "BXF": {
    "name": "Bellburn Airstrip",
    "city": "Western Australia",
    "country": "AU",
    "lat": -17.545,
    "lon": 128.305
  },
  "BXG": {
    "name": "Bendigo Airport",
    "city": "Victoria",
    "country": "AU",
    "lat": -36.73939896,
    "lon": 144.3300018
  },
  "TWB": {
    "name": "Toowoomba City Aerodrome",
    "city": "Queensland",
    "country": "AU",
    "lat": -27.542801,
    "lon": 151.916
  },
  "TUM": {
    "name": "Tumut Airport",
    "city": "New South Wales",
    "country": "AU",
    "lat": -35.26279831,
    "lon": 148.2409973
  },
  "TTX": {
    "name": "Truscott-Mungalalu Airport",
    "city": "Western Australia",
    "country": "AU",
    "lat": -14.08969975,
    "lon": 126.3809967
  },
  "TSV": {
    "name": "Townsville Airport",
    "city": "Queensland",
    "country": "AU",
    "lat": -19.25250053,
    "lon": 146.7649994
  },
  "TRO": {
    "name": "Taree Airport",
    "city": "New South Wales",
    "country": "AU",
    "lat": -31.8885994,
    "lon": 152.5140076
  },
  "TQP": {
    "name": "Trepell Airport",
    "city": "Queensland",
    "country": "AU",
    "lat": -21.83499908,
    "lon": 140.8880005
  },
  "CUD": {
    "name": "Caloundra Airport",
    "city": "Queensland",
    "country": "AU",
    "lat": -26.79999924,
    "lon": 153.1000061
  },
  "FIK": {
    "name": "Finke Airport",
    "city": "Northern Territory",
    "country": "AU",
    "lat": -25.59469986,
    "lon": 134.5829926
  },
  "TPR": {
    "name": "Tom Price Airport",
    "city": "Western Australia",
    "country": "AU",
    "lat": -22.74600029,
    "lon": 117.8690033
  },
  "CUG": {
    "name": "Cudal Airport",
    "city": "New South Wales",
    "country": "AU",
    "lat": -33.27830124,
    "lon": 148.7630005
  },
  "FIZ": {
    "name": "Fitzroy Crossing Airport",
    "city": "Western Australia",
    "country": "AU",
    "lat": -18.18190002,
    "lon": 125.5589981
  },
  "FLS": {
    "name": "Flinders Island Airport",
    "city": "Tasmania",
    "country": "AU",
    "lat": -40.09170151,
    "lon": 147.9929962
  },
  "FLY": {
    "name": "Finley Airport",
    "city": "New South Wales",
    "country": "AU",
    "lat": -35.66669846,
    "lon": 145.5500031
  },
  "TMW": {
    "name": "Tamworth Airport",
    "city": "New South Wales",
    "country": "AU",
    "lat": -31.08390045,
    "lon": 150.8470001
  },
  "FOS": {
    "name": "Forrest Airport",
    "city": "Western Australia",
    "country": "AU",
    "lat": -30.83810043,
    "lon": 128.1150055
  },
  "FOT": {
    "name": "Forster (Wallis Island) Airport",
    "city": "New South Wales",
    "country": "AU",
    "lat": -32.20420074,
    "lon": 152.4790039
  },
  "FRB": {
    "name": "Forbes Airport",
    "city": "New South Wales",
    "country": "AU",
    "lat": -33.363602,
    "lon": 147.934998
  },
  "TKY": {
    "name": "Turkey Creek Airport",
    "city": "Western Australia",
    "country": "AU",
    "lat": -17.04080009,
    "lon": 128.2059937
  },